{"type":"FeatureCollection","name":"landing points","crs":{"type":"name","properties":{"name":"urn:ogc:def:crs:OGC:1.3:CRS84"}},"features":[{"type":"Feature","properties":{"id":"changi-south-singapore","name":"Changi South, Singapore","is_tbd":false},"geometry":{"type":"Point","coordinates":[103.98701228871843,1.389044778364536]}},{"type":"Feature","properties":{"id":"paramaribo-suriname","name":"Paramaribo, Suriname","is_tbd":false},"geometry":{"type":"Point","coordinates":[-55.173851,5.82403]}},{"type":"Feature","properties":{"id":"georgetown-guyana","name":"Georgetown, Guyana","is_tbd":false},"geometry":{"type":"Point","coordinates":[-58.154835,6.804503]}},{"type":"Feature","properties":{"id":"chaguaramas-trinidad-and-tobago","name":"Chaguaramas, Trinidad and Tobago","is_tbd":false},"geometry":{"type":"Point","coordinates":[-61.6508105,10.686136799999957]}},{"type":"Feature","properties":{"id":"rockly-bay-trinidad-and-tobago","name":"Rockly Bay, Trinidad and Tobago","is_tbd":false},"geometry":{"type":"Point","coordinates":[-60.73534,11.182457]}},{"type":"Feature","properties":{"id":"tuas-singapore","name":"Tuas, Singapore","is_tbd":false},"geometry":{"type":"Point","coordinates":[103.64621,1.338646]}},{"type":"Feature","properties":{"id":"minamiboso-japan","name":"Minamiboso, Japan","is_tbd":false},"geometry":{"type":"Point","coordinates":[139.840128,35.042991]}},{"type":"Feature","properties":{"id":"jakarta-indonesia","name":"Jakarta, Indonesia","is_tbd":false},"geometry":{"type":"Point","coordinates":[106.82786799999988,-6.171588]}},{"type":"Feature","properties":{"id":"toucheng-taiwan","name":"Toucheng, Taiwan","is_tbd":false},"geometry":{"type":"Point","coordinates":[121.8014539999999,24.863576]}},{"type":"Feature","properties":{"id":"changi-north-singapore","name":"Changi North, Singapore","is_tbd":false},"geometry":{"type":"Point","coordinates":[103.98701228871843,1.389044778364536]}},{"type":"Feature","properties":{"id":"cayenne-french-guiana","name":"Cayenne, French Guiana","is_tbd":false},"geometry":{"type":"Point","coordinates":[-52.3134531,4.92242]}},{"type":"Feature","properties":{"id":"davao-philippines","name":"Davao, Philippines","is_tbd":false},"geometry":{"type":"Point","coordinates":[125.61277,7.079959999999829]}},{"type":"Feature","properties":{"id":"baler-philippines","name":"Baler, Philippines","is_tbd":false},"geometry":{"type":"Point","coordinates":[121.56019,15.76153]}},{"type":"Feature","properties":{"id":"barka-oman","name":"Barka, Oman","is_tbd":false},"geometry":{"type":"Point","coordinates":[58.004372999999816,23.6796149999999]}},{"type":"Feature","properties":{"id":"abu-dhabi-united-arab-emirates","name":"Abu Dhabi, United Arab Emirates","is_tbd":false},"geometry":{"type":"Point","coordinates":[54.41896,24.44396]}},{"type":"Feature","properties":{"id":"kalba-united-arab-emirates","name":"Kalba, United Arab Emirates","is_tbd":false},"geometry":{"type":"Point","coordinates":[56.339979,25.051524]}},{"type":"Feature","properties":{"id":"doha-qatar","name":"Doha, Qatar","is_tbd":false},"geometry":{"type":"Point","coordinates":[51.51939,25.294537]}},{"type":"Feature","properties":{"id":"manama-bahrain","name":"Manama, Bahrain","is_tbd":false},"geometry":{"type":"Point","coordinates":[50.575955000000164,26.229438]}},{"type":"Feature","properties":{"id":"al-faw-iraq","name":"Al Faw, Iraq","is_tbd":false},"geometry":{"type":"Point","coordinates":[48.53178,29.923671]}},{"type":"Feature","properties":{"id":"kuwait-city-kuwait","name":"Kuwait City, Kuwait","is_tbd":false},"geometry":{"type":"Point","coordinates":[47.974734,29.374154]}},{"type":"Feature","properties":{"id":"al-khobar-saudi-arabia","name":"Al Khobar, Saudi Arabia","is_tbd":false},"geometry":{"type":"Point","coordinates":[50.214262,26.286558]}},{"type":"Feature","properties":{"id":"karachi-pakistan","name":"Karachi, Pakistan","is_tbd":false},"geometry":{"type":"Point","coordinates":[67.02853899999985,24.889676999999836]}},{"type":"Feature","properties":{"id":"mumbai-india","name":"Mumbai, India","is_tbd":false},"geometry":{"type":"Point","coordinates":[72.875866,19.07608]}},{"type":"Feature","properties":{"id":"duba-saudi-arabia","name":"Duba, Saudi Arabia","is_tbd":false},"geometry":{"type":"Point","coordinates":[35.696529,27.354019000000108]}},{"type":"Feature","properties":{"id":"jeddah-saudi-arabia","name":"Jeddah, Saudi Arabia","is_tbd":false},"geometry":{"type":"Point","coordinates":[39.182863,21.481547]}},{"type":"Feature","properties":{"id":"djibouti-city-djibouti","name":"Djibouti City, Djibouti","is_tbd":false},"geometry":{"type":"Point","coordinates":[43.14583330000036,11.598738890000135]}},{"type":"Feature","properties":{"id":"yanbu-saudi-arabia","name":"Yanbu, Saudi Arabia","is_tbd":false},"geometry":{"type":"Point","coordinates":[38.10701599999973,24.07061700000014]}},{"type":"Feature","properties":{"id":"timpaki-greece","name":"Timpaki, Greece","is_tbd":false},"geometry":{"type":"Point","coordinates":[24.768400000000355,35.071629999999374]}},{"type":"Feature","properties":{"id":"thorlakshofn-iceland","name":"Thorlakshofn, Iceland","is_tbd":false},"geometry":{"type":"Point","coordinates":[-21.378120000000166,63.856258000000224]}},{"type":"Feature","properties":{"id":"vladivostok-russia","name":"Vladivostok, Russia","is_tbd":false},"geometry":{"type":"Point","coordinates":[131.91075500000014,43.15461600000029]}},{"type":"Feature","properties":{"id":"murmansk-russia","name":"Murmansk, Russia","is_tbd":false},"geometry":{"type":"Point","coordinates":[33.086850000000396,68.97278999999958]}},{"type":"Feature","properties":{"id":"okrug-russia","name":"Okrug, Russia","is_tbd":false},"geometry":{"type":"Point","coordinates":[61.66370000000046,69.75119999999981]}},{"type":"Feature","properties":{"id":"sakha-republic-russia","name":"Sakha Republic, Russia","is_tbd":false},"geometry":{"type":"Point","coordinates":[128.86449999999988,71.63749999999987]}},{"type":"Feature","properties":{"id":"pevek-russia","name":"Pevek, Russia","is_tbd":false},"geometry":{"type":"Point","coordinates":[170.307,69.7029]}},{"type":"Feature","properties":{"id":"anadyr-russia","name":"Anadyr, Russia","is_tbd":false},"geometry":{"type":"Point","coordinates":[177.502146,64.727191]}},{"type":"Feature","properties":{"id":"petropavlovsk-kamchatsky-russia","name":"Petropavlovsk-Kamchatsky, Russia","is_tbd":false},"geometry":{"type":"Point","coordinates":[158.65000000000074,53.016667]}},{"type":"Feature","properties":{"id":"yuzhno-sakhalinsk-russia","name":"Yuzhno-Sakhalinsk, Russia","is_tbd":false},"geometry":{"type":"Point","coordinates":[142.72619600000016,46.948971]}},{"type":"Feature","properties":{"id":"nakhodka-russia","name":"Nakhodka, Russia","is_tbd":false},"geometry":{"type":"Point","coordinates":[132.87401199999985,42.812626]}},{"type":"Feature","properties":{"id":"dikson-russia","name":"Dikson, Russia","is_tbd":false},"geometry":{"type":"Point","coordinates":[80.53099999999964,73.5077]}},{"type":"Feature","properties":{"id":"kaikoura-new-zealand","name":"Kaikoura, New Zealand","is_tbd":false},"geometry":{"type":"Point","coordinates":[173.68299900000025,-42.402699]}},{"type":"Feature","properties":{"id":"auckland-new-zealand","name":"Auckland, New Zealand","is_tbd":false},"geometry":{"type":"Point","coordinates":[174.7704190000002,-36.88420899999983]}},{"type":"Feature","properties":{"id":"wellington-new-zealand","name":"Wellington, New Zealand","is_tbd":false},"geometry":{"type":"Point","coordinates":[174.76712099999938,-41.28051499999978]}},{"type":"Feature","properties":{"id":"christchurch-new-zealand","name":"Christchurch, New Zealand","is_tbd":false},"geometry":{"type":"Point","coordinates":[172.63622540000003,-43.53205440000002]}},{"type":"Feature","properties":{"id":"raglan-new-zealand","name":"Raglan, New Zealand","is_tbd":false},"geometry":{"type":"Point","coordinates":[174.87179400000068,-37.801406000000156]}},{"type":"Feature","properties":{"id":"new-plymouth-new-zealand","name":"New Plymouth, New Zealand","is_tbd":false},"geometry":{"type":"Point","coordinates":[174.083333,-39.06666699999974]}},{"type":"Feature","properties":{"id":"paraparaumu-new-zealand","name":"Paraparaumu, New Zealand","is_tbd":false},"geometry":{"type":"Point","coordinates":[174.99746700000108,-40.91911600000029]}},{"type":"Feature","properties":{"id":"whanganui-new-zealand","name":"Whanganui, New Zealand","is_tbd":false},"geometry":{"type":"Point","coordinates":[175.05000000000038,-39.933333000000204]}},{"type":"Feature","properties":{"id":"waikanae-new-zealand","name":"Waikanae, New Zealand","is_tbd":false},"geometry":{"type":"Point","coordinates":[175.05195599999965,-40.862789]}},{"type":"Feature","properties":{"id":"titahi-bay-new-zealand","name":"Titahi Bay, New Zealand","is_tbd":false},"geometry":{"type":"Point","coordinates":[174.83800000000107,-41.10580000000036]}},{"type":"Feature","properties":{"id":"oara-new-zealand","name":"Oara, New Zealand","is_tbd":false},"geometry":{"type":"Point","coordinates":[173.50613300000057,-42.51606]}},{"type":"Feature","properties":{"id":"gran-canaria-canary-islands-spain","name":"Gran Canaria, Canary Islands, Spain","is_tbd":false},"geometry":{"type":"Point","coordinates":[-15.59656500000034,27.957734999999843]}},{"type":"Feature","properties":{"id":"carana-seychelles","name":"Carana, Seychelles","is_tbd":false},"geometry":{"type":"Point","coordinates":[55.45302900000016,-4.565748999999556]}},{"type":"Feature","properties":{"id":"mellieha-malta","name":"Mellieha, Malta","is_tbd":false},"geometry":{"type":"Point","coordinates":[14.350100000001078,35.95239999999956]}},{"type":"Feature","properties":{"id":"chennai-india","name":"Chennai, India","is_tbd":false},"geometry":{"type":"Point","coordinates":[80.24304900000052,13.0639180000002]}},{"type":"Feature","properties":{"id":"satun-thailand","name":"Satun, Thailand","is_tbd":false},"geometry":{"type":"Point","coordinates":[100.06611799999948,6.613467]}},{"type":"Feature","properties":{"id":"morib-malaysia","name":"Morib, Malaysia","is_tbd":false},"geometry":{"type":"Point","coordinates":[101.4436,2.751199999999244]}},{"type":"Feature","properties":{"id":"matara-sri-lanka","name":"Matara, Sri Lanka","is_tbd":false},"geometry":{"type":"Point","coordinates":[80.53991299999953,5.940826000000271]}},{"type":"Feature","properties":{"id":"salalah-oman","name":"Salalah, Oman","is_tbd":false},"geometry":{"type":"Point","coordinates":[54.14803899999981,17.095865999999518]}},{"type":"Feature","properties":{"id":"sidi-kerir-egypt","name":"Sidi Kerir, Egypt","is_tbd":false},"geometry":{"type":"Point","coordinates":[29.672356,31.047639999999376]}},{"type":"Feature","properties":{"id":"zafarana-egypt","name":"Zafarana, Egypt","is_tbd":false},"geometry":{"type":"Point","coordinates":[32.6498940000001,29.116661999999252]}},{"type":"Feature","properties":{"id":"savona-italy","name":"Savona, Italy","is_tbd":false},"geometry":{"type":"Point","coordinates":[8.483793,44.30577799999949]}},{"type":"Feature","properties":{"id":"praia-grande-brazil","name":"Praia Grande, Brazil","is_tbd":false},"geometry":{"type":"Point","coordinates":[-46.41250299999908,-24.00887299999954]}},{"type":"Feature","properties":{"id":"punta-del-este-uruguay","name":"Punta del Este, Uruguay","is_tbd":false},"geometry":{"type":"Point","coordinates":[-54.94999999999931,-34.966666999999205]}},{"type":"Feature","properties":{"id":"las-toninas-argentina","name":"Las Toninas, Argentina","is_tbd":false},"geometry":{"type":"Point","coordinates":[-56.695511999999184,-36.472523000000194]}},{"type":"Feature","properties":{"id":"shanghai-china","name":"Shanghai, China","is_tbd":false},"geometry":{"type":"Point","coordinates":[121.47258699999978,31.247570999999823]}},{"type":"Feature","properties":{"id":"gianyar-indonesia","name":"Gianyar, Indonesia","is_tbd":false},"geometry":{"type":"Point","coordinates":[115.33144100000013,-8.5367150000003]}},{"type":"Feature","properties":{"id":"denpasar-indonesia","name":"Denpasar, Indonesia","is_tbd":false},"geometry":{"type":"Point","coordinates":[115.22151900000014,-8.656660000000187]}},{"type":"Feature","properties":{"id":"pringgabaya-indonesia","name":"Pringgabaya, Indonesia","is_tbd":false},"geometry":{"type":"Point","coordinates":[116.6549200000006,-8.537099000000126]}},{"type":"Feature","properties":{"id":"arica-chile","name":"Arica, Chile","is_tbd":false},"geometry":{"type":"Point","coordinates":[-70.30674999999938,-18.473380999999762]}},{"type":"Feature","properties":{"id":"iquique-chile","name":"Iquique, Chile","is_tbd":false},"geometry":{"type":"Point","coordinates":[-70.14222299999986,-20.21669999999935]}},{"type":"Feature","properties":{"id":"antofagasta-chile","name":"Antofagasta, Chile","is_tbd":false},"geometry":{"type":"Point","coordinates":[-70.39999999999922,-23.65000000000032]}},{"type":"Feature","properties":{"id":"la-serena-chile","name":"La Serena, Chile","is_tbd":false},"geometry":{"type":"Point","coordinates":[-71.25020400000048,-29.906301000000724]}},{"type":"Feature","properties":{"id":"valparaso-chile","name":"Valparaíso, Chile","is_tbd":false},"geometry":{"type":"Point","coordinates":[-71.62031099999952,-33.045520999999866]}},{"type":"Feature","properties":{"id":"puerto-montt-chile","name":"Puerto Montt, Chile","is_tbd":false},"geometry":{"type":"Point","coordinates":[-72.95341900000022,-41.460379]}},{"type":"Feature","properties":{"id":"talcahuano-chile","name":"Talcahuano, Chile","is_tbd":false},"geometry":{"type":"Point","coordinates":[-73.11698200000026,-36.724785]}},{"type":"Feature","properties":{"id":"san-antonio-chile","name":"San Antonio, Chile","is_tbd":false},"geometry":{"type":"Point","coordinates":[-71.61306499999975,-33.5836469999995]}},{"type":"Feature","properties":{"id":"valdivia-chile","name":"Valdivia, Chile","is_tbd":false},"geometry":{"type":"Point","coordinates":[-73.24583300000036,-39.81388899999959]}},{"type":"Feature","properties":{"id":"tocopilla-chile","name":"Tocopilla, Chile","is_tbd":false},"geometry":{"type":"Point","coordinates":[-70.19765799999944,-22.088377999999864]}},{"type":"Feature","properties":{"id":"puerto-saavedra-chile","name":"Puerto Saavedra, Chile","is_tbd":false},"geometry":{"type":"Point","coordinates":[-73.39676999999983,-38.78713000000059]}},{"type":"Feature","properties":{"id":"caldera-chile","name":"Caldera, Chile","is_tbd":false},"geometry":{"type":"Point","coordinates":[-70.812357,-27.061992]}},{"type":"Feature","properties":{"id":"constitucin-chile","name":"Constitución, Chile","is_tbd":false},"geometry":{"type":"Point","coordinates":[-72.416068,-35.318370999999644]}},{"type":"Feature","properties":{"id":"jdaide-lebanon","name":"Jdaide, Lebanon","is_tbd":false},"geometry":{"type":"Point","coordinates":[35.56304299999945,33.89190000000053]}},{"type":"Feature","properties":{"id":"playa-blanca-canary-islands-spain","name":"Playa Blanca, Canary Islands, Spain","is_tbd":false},"geometry":{"type":"Point","coordinates":[-13.827320000000213,28.863419999999593]}},{"type":"Feature","properties":{"id":"rock-sound-bahamas","name":"Rock Sound, Bahamas","is_tbd":false},"geometry":{"type":"Point","coordinates":[-76.5744468253916,24.424987000000385]}},{"type":"Feature","properties":{"id":"west-island-cocos-keeling-islands","name":"West Island, Cocos (Keeling) Islands","is_tbd":false},"geometry":{"type":"Point","coordinates":[96.83231500000093,-12.193114000000435]}},{"type":"Feature","properties":{"id":"preveza-greece","name":"Preveza, Greece","is_tbd":false},"geometry":{"type":"Point","coordinates":[20.751715,38.9592669999997]}},{"type":"Feature","properties":{"id":"crotone-italy","name":"Crotone, Italy","is_tbd":false},"geometry":{"type":"Point","coordinates":[17.127150000000398,39.08066899999963]}},{"type":"Feature","properties":{"id":"dakhla-morocco","name":"Dakhla, Morocco","is_tbd":false},"geometry":{"type":"Point","coordinates":[-15.934426000000713,23.721081]}},{"type":"Feature","properties":{"id":"waingapu-indonesia","name":"Waingapu, Indonesia","is_tbd":false},"geometry":{"type":"Point","coordinates":[120.252914,-9.646107999999458]}},{"type":"Feature","properties":{"id":"sumbawa-besar-indonesia","name":"Sumbawa Besar, Indonesia","is_tbd":false},"geometry":{"type":"Point","coordinates":[118.08221700000016,-8.841150000000482]}},{"type":"Feature","properties":{"id":"lombok-indonesia","name":"Lombok, Indonesia","is_tbd":false},"geometry":{"type":"Point","coordinates":[116.07252,-8.561430000000229]}},{"type":"Feature","properties":{"id":"padang-galak-indonesia","name":"Padang Galak, Indonesia","is_tbd":false},"geometry":{"type":"Point","coordinates":[115.26056999999898,-8.65710000000027]}},{"type":"Feature","properties":{"id":"agat-gu-united-states","name":"Agat, GU, United States","is_tbd":false},"geometry":{"type":"Point","coordinates":[144.6575300000005,13.38530999999952]}},{"type":"Feature","properties":{"id":"tanjung-pakis-indonesia","name":"Tanjung Pakis, Indonesia","is_tbd":false},"geometry":{"type":"Point","coordinates":[107.12089678739582,-5.981255891396046]}},{"type":"Feature","properties":{"id":"eureka-ca-united-states","name":"Eureka, CA, United States","is_tbd":false},"geometry":{"type":"Point","coordinates":[-124.159554,40.80325500000063]}},{"type":"Feature","properties":{"id":"george-town-cayman-islands","name":"George Town, Cayman Islands","is_tbd":false},"geometry":{"type":"Point","coordinates":[-81.381704,19.2966]}},{"type":"Feature","properties":{"id":"montego-bay-jamaica","name":"Montego Bay, Jamaica","is_tbd":false},"geometry":{"type":"Point","coordinates":[-77.92137900000024,18.46936000000062]}},{"type":"Feature","properties":{"id":"ocho-rios-jamaica","name":"Ocho Rios, Jamaica","is_tbd":false},"geometry":{"type":"Point","coordinates":[-77.10319145653139,18.398554763480178]}},{"type":"Feature","properties":{"id":"puerto-general-villamil-ecuador","name":"Puerto General Villamil, Ecuador","is_tbd":false},"geometry":{"type":"Point","coordinates":[-90.962113,-0.961038000000599]}},{"type":"Feature","properties":{"id":"puerto-ayora-ecuador","name":"Puerto Ayora, Ecuador","is_tbd":false},"geometry":{"type":"Point","coordinates":[-90.311297,-0.742407000000895]}},{"type":"Feature","properties":{"id":"tebingtinggi-island-indonesia","name":"Tebingtinggi Island, Indonesia","is_tbd":false},"geometry":{"type":"Point","coordinates":[102.6670199999999,0.932559999999484]}},{"type":"Feature","properties":{"id":"wall-township-nj-united-states","name":"Wall Township, NJ, United States","is_tbd":false},"geometry":{"type":"Point","coordinates":[-74.06287378610293,40.15288660362242]}},{"type":"Feature","properties":{"id":"virginia-beach-va-united-states","name":"Virginia Beach, VA, United States","is_tbd":false},"geometry":{"type":"Point","coordinates":[-76.0591980554813,36.75501822092633]}},{"type":"Feature","properties":{"id":"myrtle-beach-sc-united-states","name":"Myrtle Beach, SC, United States","is_tbd":false},"geometry":{"type":"Point","coordinates":[-78.88267627991196,33.69356806481849]}},{"type":"Feature","properties":{"id":"jacksonville-fl-united-states","name":"Jacksonville, FL, United States","is_tbd":false},"geometry":{"type":"Point","coordinates":[-81.65572119046146,30.33203468427152]}},{"type":"Feature","properties":{"id":"sunny-isles-fl-united-states","name":"Sunny Isles, FL, United States","is_tbd":false},"geometry":{"type":"Point","coordinates":[-80.12156700383323,25.93848705585839]}},{"type":"Feature","properties":{"id":"igneada-turkey","name":"Igneada, Turkey","is_tbd":false},"geometry":{"type":"Point","coordinates":[27.985308316539033,41.88417700854285]}},{"type":"Feature","properties":{"id":"mangalia-romania","name":"Mangalia, Romania","is_tbd":false},"geometry":{"type":"Point","coordinates":[28.58276883079259,43.817203429779966]}},{"type":"Feature","properties":{"id":"varna-bulgaria","name":"Varna, Bulgaria","is_tbd":false},"geometry":{"type":"Point","coordinates":[27.912847430371073,43.208378859398294]}},{"type":"Feature","properties":{"id":"istanbul-turkey","name":"Istanbul, Turkey","is_tbd":false},"geometry":{"type":"Point","coordinates":[28.98608885757659,41.040611420515205]}},{"type":"Feature","properties":{"id":"natuna-indonesia","name":"Natuna, Indonesia","is_tbd":false},"geometry":{"type":"Point","coordinates":[108.14286871967076,3.945663654321777]}},{"type":"Feature","properties":{"id":"batam-indonesia","name":"Batam, Indonesia","is_tbd":false},"geometry":{"type":"Point","coordinates":[103.96250058733355,1.134724535941842]}},{"type":"Feature","properties":{"id":"lingga-indonesia","name":"Lingga, Indonesia","is_tbd":false},"geometry":{"type":"Point","coordinates":[104.63544932935943,-0.162758734486772]}},{"type":"Feature","properties":{"id":"singkawang-indonesia","name":"Singkawang, Indonesia","is_tbd":false},"geometry":{"type":"Point","coordinates":[108.9872040590362,0.906013564379833]}},{"type":"Feature","properties":{"id":"terempa-indonesia","name":"Terempa, Indonesia","is_tbd":false},"geometry":{"type":"Point","coordinates":[106.21108297879087,3.207108027466347]}},{"type":"Feature","properties":{"id":"dumai-indonesia","name":"Dumai, Indonesia","is_tbd":false},"geometry":{"type":"Point","coordinates":[101.4476342048263,1.665606179943921]}},{"type":"Feature","properties":{"id":"bengkalis-indonesia","name":"Bengkalis, Indonesia","is_tbd":false},"geometry":{"type":"Point","coordinates":[102.08010445990274,1.489196199854575]}},{"type":"Feature","properties":{"id":"kuala-tungkal-indonesia","name":"Kuala Tungkal, Indonesia","is_tbd":false},"geometry":{"type":"Point","coordinates":[103.46318453480299,-0.823447909986584]}},{"type":"Feature","properties":{"id":"karimun-indonesia","name":"Karimun, Indonesia","is_tbd":false},"geometry":{"type":"Point","coordinates":[103.40488379485404,0.769809997521861]}},{"type":"Feature","properties":{"id":"ranai-indonesia","name":"Ranai, Indonesia","is_tbd":false},"geometry":{"type":"Point","coordinates":[108.37748769408964,3.940902007894351]}},{"type":"Feature","properties":{"id":"bintan-indonesia","name":"Bintan, Indonesia","is_tbd":false},"geometry":{"type":"Point","coordinates":[104.42580634037225,1.136696382474639]}},{"type":"Feature","properties":{"id":"chikura-japan","name":"Chikura, Japan","is_tbd":false},"geometry":{"type":"Point","coordinates":[139.95466259014816,34.97665774488061]}},{"type":"Feature","properties":{"id":"busan-south-korea","name":"Busan, South Korea","is_tbd":false},"geometry":{"type":"Point","coordinates":[128.99929925727972,35.17014221411421]}},{"type":"Feature","properties":{"id":"shantou-china","name":"Shantou, China","is_tbd":false},"geometry":{"type":"Point","coordinates":[116.67547986258981,23.354554663213378]}},{"type":"Feature","properties":{"id":"kuantan-malaysia","name":"Kuantan, Malaysia","is_tbd":false},"geometry":{"type":"Point","coordinates":[103.32255963442319,3.815165294465146]}},{"type":"Feature","properties":{"id":"kitaibaraki-japan","name":"Kitaibaraki, Japan","is_tbd":false},"geometry":{"type":"Point","coordinates":[140.75095108854927,36.8017830528681]}},{"type":"Feature","properties":{"id":"lantau-island-china","name":"Lantau Island, China","is_tbd":false},"geometry":{"type":"Point","coordinates":[113.94833335702552,22.271491582356134]}},{"type":"Feature","properties":{"id":"chongming-china","name":"Chongming, China","is_tbd":false},"geometry":{"type":"Point","coordinates":[121.39520308159317,31.61988322143364]}},{"type":"Feature","properties":{"id":"katong-singapore","name":"Katong, Singapore","is_tbd":false},"geometry":{"type":"Point","coordinates":[103.90468812828775,1.309281803574521]}},{"type":"Feature","properties":{"id":"batangas-philippines","name":"Batangas, Philippines","is_tbd":false},"geometry":{"type":"Point","coordinates":[121.06492987806163,13.765553306627453]}},{"type":"Feature","properties":{"id":"tanshui-taiwan","name":"Tanshui, Taiwan","is_tbd":false},"geometry":{"type":"Point","coordinates":[121.46258584635868,25.18136115573813]}},{"type":"Feature","properties":{"id":"casablanca-morocco","name":"Casablanca, Morocco","is_tbd":false},"geometry":{"type":"Point","coordinates":[-7.631939228454911,33.605388222844965]}},{"type":"Feature","properties":{"id":"puerto-baquerizo-moreno-ecuador","name":"Puerto Baquerizo Moreno, Ecuador","is_tbd":false},"geometry":{"type":"Point","coordinates":[-89.61434465171453,-0.909204747199709]}},{"type":"Feature","properties":{"id":"mombasa-kenya","name":"Mombasa, Kenya","is_tbd":false},"geometry":{"type":"Point","coordinates":[39.672848865100434,-4.053011938111581]}},{"type":"Feature","properties":{"id":"marseille-france","name":"Marseille, France","is_tbd":false},"geometry":{"type":"Point","coordinates":[5.372519159870023,43.29358222740103]}},{"type":"Feature","properties":{"id":"berbera-somalia","name":"Berbera, Somalia","is_tbd":false},"geometry":{"type":"Point","coordinates":[45.01090660700808,10.435139839597326]}},{"type":"Feature","properties":{"id":"port-sudan-sudan","name":"Port Sudan, Sudan","is_tbd":false},"geometry":{"type":"Point","coordinates":[37.2197011888712,19.6155521522995]}},{"type":"Feature","properties":{"id":"palermo-italy","name":"Palermo, Italy","is_tbd":false},"geometry":{"type":"Point","coordinates":[13.358389967448261,38.12145287897343]}},{"type":"Feature","properties":{"id":"mocha-yemen","name":"Mocha, Yemen","is_tbd":false},"geometry":{"type":"Point","coordinates":[43.247333637590174,13.320293944780644]}},{"type":"Feature","properties":{"id":"port-said-egypt","name":"Port Said, Egypt","is_tbd":false},"geometry":{"type":"Point","coordinates":[32.28447519284333,31.25928858135137]}},{"type":"Feature","properties":{"id":"ras-ghareb-egypt","name":"Ras Ghareb, Egypt","is_tbd":false},"geometry":{"type":"Point","coordinates":[33.08279005699819,28.3659148511816]}},{"type":"Feature","properties":{"id":"bizerte-tunisia","name":"Bizerte, Tunisia","is_tbd":false},"geometry":{"type":"Point","coordinates":[9.867340194446399,37.27679632943824]}},{"type":"Feature","properties":{"id":"bejaia-algeria","name":"Bejaia, Algeria","is_tbd":false},"geometry":{"type":"Point","coordinates":[5.066379240022911,36.7570329329057]}},{"type":"Feature","properties":{"id":"clarenville-nl-canada","name":"Clarenville, NL, Canada","is_tbd":false},"geometry":{"type":"Point","coordinates":[-53.96454866184608,48.168222910536315]}},{"type":"Feature","properties":{"id":"iqaluit-nu-canada","name":"Iqaluit, NU, Canada","is_tbd":false},"geometry":{"type":"Point","coordinates":[-68.51972585745172,63.74861192041081]}},{"type":"Feature","properties":{"id":"zeebrugge-belgium","name":"Zeebrugge, Belgium","is_tbd":false},"geometry":{"type":"Point","coordinates":[3.207005557221464,51.33072066692583]}},{"type":"Feature","properties":{"id":"zandvoort-netherlands","name":"Zandvoort, Netherlands","is_tbd":false},"geometry":{"type":"Point","coordinates":[4.527219465719412,52.3704061705302]}},{"type":"Feature","properties":{"id":"sizewell-united-kingdom","name":"Sizewell, United Kingdom","is_tbd":false},"geometry":{"type":"Point","coordinates":[1.620287931266347,52.207129508183556]}},{"type":"Feature","properties":{"id":"thorpeness-united-kingdom","name":"Thorpeness, United Kingdom","is_tbd":false},"geometry":{"type":"Point","coordinates":[1.613061373886239,52.180842493763066]}},{"type":"Feature","properties":{"id":"callantsoog-netherlands","name":"Callantsoog, Netherlands","is_tbd":false},"geometry":{"type":"Point","coordinates":[4.700758740675496,52.83692630065093]}},{"type":"Feature","properties":{"id":"winterton-on-sea-united-kingdom","name":"Winterton-on-Sea, United Kingdom","is_tbd":false},"geometry":{"type":"Point","coordinates":[1.693546515543915,52.71520907724329]}},{"type":"Feature","properties":{"id":"rurutu-french-polynesia","name":"Rurutu, French Polynesia","is_tbd":false},"geometry":{"type":"Point","coordinates":[-151.3428793820873,-22.451280119948564]}},{"type":"Feature","properties":{"id":"tubuai-french-polynesia","name":"Tubuai, French Polynesia","is_tbd":false},"geometry":{"type":"Point","coordinates":[-149.48591885045485,-23.346958549161855]}},{"type":"Feature","properties":{"id":"les-les-de-la-madeleine-qc-canada","name":"Les Îles-de-la-Madeleine, QC, Canada","is_tbd":false},"geometry":{"type":"Point","coordinates":[-61.95570010196221,47.382587543938456]}},{"type":"Feature","properties":{"id":"lanse--beaufils-qc-canada","name":"L'Anse-à-Beaufils, QC, Canada","is_tbd":false},"geometry":{"type":"Point","coordinates":[-64.30896411288747,48.47176997217477]}},{"type":"Feature","properties":{"id":"letkokkon-myanmar","name":"Letkokkon, Myanmar","is_tbd":false},"geometry":{"type":"Point","coordinates":[96.16200172862122,16.34039907601519]}},{"type":"Feature","properties":{"id":"soyo-angola","name":"Soyo, Angola","is_tbd":false},"geometry":{"type":"Point","coordinates":[12.352112369863676,-6.141027019376253]}},{"type":"Feature","properties":{"id":"cabinda-angola","name":"Cabinda, Angola","is_tbd":false},"geometry":{"type":"Point","coordinates":[12.189832211387,-5.556551942090721]}},{"type":"Feature","properties":{"id":"false-pass-ak-united-states","name":"False Pass, AK, United States","is_tbd":false},"geometry":{"type":"Point","coordinates":[-163.41500012444857,54.85092929744064]}},{"type":"Feature","properties":{"id":"akutan-ak-united-states","name":"Akutan, AK, United States","is_tbd":false},"geometry":{"type":"Point","coordinates":[-165.77305662048326,54.13564624654407]}},{"type":"Feature","properties":{"id":"kodiak-ak-united-states","name":"Kodiak, AK, United States","is_tbd":false},"geometry":{"type":"Point","coordinates":[-152.3951486170498,57.79442941202839]}},{"type":"Feature","properties":{"id":"king-cove-ak-united-states","name":"King Cove, AK, United States","is_tbd":false},"geometry":{"type":"Point","coordinates":[-162.30442046685764,55.04922413917524]}},{"type":"Feature","properties":{"id":"cold-bay-ak-united-states","name":"Cold Bay, AK, United States","is_tbd":false},"geometry":{"type":"Point","coordinates":[-162.7040295587709,55.204141643227786]}},{"type":"Feature","properties":{"id":"sand-point-ak-united-states","name":"Sand Point, AK, United States","is_tbd":false},"geometry":{"type":"Point","coordinates":[-160.49630102020737,55.341544848049836]}},{"type":"Feature","properties":{"id":"perryville-ak-united-states","name":"Perryville, AK, United States","is_tbd":false},"geometry":{"type":"Point","coordinates":[-159.14479135751245,55.91750617656814]}},{"type":"Feature","properties":{"id":"chignik-bay-ak-united-states","name":"Chignik Bay, AK, United States","is_tbd":false},"geometry":{"type":"Point","coordinates":[-158.4088086025222,56.29452718230348]}},{"type":"Feature","properties":{"id":"chignik-lagoon-ak-united-states","name":"Chignik Lagoon, AK, United States","is_tbd":false},"geometry":{"type":"Point","coordinates":[-158.50722924813215,56.321349454230585]}},{"type":"Feature","properties":{"id":"chignik-lake-ak-united-states","name":"Chignik Lake, AK, United States","is_tbd":false},"geometry":{"type":"Point","coordinates":[-158.77209112104845,56.254980633515686]}},{"type":"Feature","properties":{"id":"larsen-bay-ak-united-states","name":"Larsen Bay, AK, United States","is_tbd":false},"geometry":{"type":"Point","coordinates":[-153.9859708543545,57.537325409216095]}},{"type":"Feature","properties":{"id":"unalaska-ak-united-states","name":"Unalaska, AK, United States","is_tbd":false},"geometry":{"type":"Point","coordinates":[-166.5332428495381,53.88452908082698]}},{"type":"Feature","properties":{"id":"coffman-cove-ak-united-states","name":"Coffman Cove, AK, United States","is_tbd":false},"geometry":{"type":"Point","coordinates":[-132.82951207850078,56.015204025100104]}},{"type":"Feature","properties":{"id":"tolu-colombia","name":"Tolu, Colombia","is_tbd":false},"geometry":{"type":"Point","coordinates":[-75.55868571473623,9.496684976707627]}},{"type":"Feature","properties":{"id":"cartagena-colombia","name":"Cartagena, Colombia","is_tbd":false},"geometry":{"type":"Point","coordinates":[-75.50568282259702,10.387019581387648]}},{"type":"Feature","properties":{"id":"santa-marta-colombia","name":"Santa Marta, Colombia","is_tbd":false},"geometry":{"type":"Point","coordinates":[-74.20528091178296,11.241950014956245]}},{"type":"Feature","properties":{"id":"puerto-colombia-colombia","name":"Puerto Colombia, Colombia","is_tbd":false},"geometry":{"type":"Point","coordinates":[-74.9527779408415,11.005175136687456]}},{"type":"Feature","properties":{"id":"parque-isla-de-salamanca-colombia","name":"Parque Isla de Salamanca, Colombia","is_tbd":false},"geometry":{"type":"Point","coordinates":[-74.61194566276006,11.012160871628339]}},{"type":"Feature","properties":{"id":"galway-ireland","name":"Galway, Ireland","is_tbd":false},"geometry":{"type":"Point","coordinates":[-9.048344475060276,53.273886331643325]}},{"type":"Feature","properties":{"id":"pagudpud-philippines","name":"Pagudpud, Philippines","is_tbd":false},"geometry":{"type":"Point","coordinates":[120.85798626960414,18.62423705385359]}},{"type":"Feature","properties":{"id":"le-porge-france","name":"Le Porge, France","is_tbd":false},"geometry":{"type":"Point","coordinates":[-1.211874000599551,44.893828011372506]}},{"type":"Feature","properties":{"id":"pascagoula-ms-united-states","name":"Pascagoula, MS, United States","is_tbd":false},"geometry":{"type":"Point","coordinates":[-88.55612365850801,30.365757133880464]}},{"type":"Feature","properties":{"id":"freeport-tx-united-states","name":"Freeport, TX, United States","is_tbd":false},"geometry":{"type":"Point","coordinates":[-95.34436958207272,28.949570369461895]}},{"type":"Feature","properties":{"id":"houstrup-denmark","name":"Houstrup, Denmark","is_tbd":false},"geometry":{"type":"Point","coordinates":[8.193131486241384,55.76459980196046]}},{"type":"Feature","properties":{"id":"maruyama-japan","name":"Maruyama, Japan","is_tbd":false},"geometry":{"type":"Point","coordinates":[139.81694296114821,35.03762880268053]}},{"type":"Feature","properties":{"id":"chung-hom-kok-china","name":"Chung Hom Kok, China","is_tbd":false},"geometry":{"type":"Point","coordinates":[114.20306950469282,22.22210648752869]}},{"type":"Feature","properties":{"id":"sriracha-thailand","name":"Sriracha, Thailand","is_tbd":false},"geometry":{"type":"Point","coordinates":[100.93054472738672,13.174440091923316]}},{"type":"Feature","properties":{"id":"quy-nhon-vietnam","name":"Quy Nhon, Vietnam","is_tbd":false},"geometry":{"type":"Point","coordinates":[109.21965018343221,13.782957863531237]}},{"type":"Feature","properties":{"id":"chisasibi-qc-canada","name":"Chisasibi, QC, Canada","is_tbd":false},"geometry":{"type":"Point","coordinates":[-78.89345508087032,53.77360358424755]}},{"type":"Feature","properties":{"id":"akulivik-qc-canada","name":"Akulivik, QC, Canada","is_tbd":false},"geometry":{"type":"Point","coordinates":[-78.14424099999935,60.81768099999965]}},{"type":"Feature","properties":{"id":"ivujivik-qc-canada","name":"Ivujivik, QC, Canada","is_tbd":false},"geometry":{"type":"Point","coordinates":[-77.91666700000017,62.41666699999965]}},{"type":"Feature","properties":{"id":"kangiqsujuaq-qc-canada","name":"Kangiqsujuaq, QC, Canada","is_tbd":false},"geometry":{"type":"Point","coordinates":[-71.95388600000067,61.59626000000017]}},{"type":"Feature","properties":{"id":"salluit-qc-canada","name":"Salluit, QC, Canada","is_tbd":false},"geometry":{"type":"Point","coordinates":[-75.6468559999994,62.20128499999987]}},{"type":"Feature","properties":{"id":"puvirnituq-qc-canada","name":"Puvirnituq, QC, Canada","is_tbd":false},"geometry":{"type":"Point","coordinates":[-77.26923137796936,60.0371146735647]}},{"type":"Feature","properties":{"id":"umiujaq-qc-canada","name":"Umiujaq, QC, Canada","is_tbd":false},"geometry":{"type":"Point","coordinates":[-76.54711274890042,56.551555831568606]}},{"type":"Feature","properties":{"id":"kuujjuarapik-qc-canada","name":"Kuujjuarapik, QC, Canada","is_tbd":false},"geometry":{"type":"Point","coordinates":[-77.76376838115088,55.27456723772826]}},{"type":"Feature","properties":{"id":"inukjuak-qc-canada","name":"Inukjuak, QC, Canada","is_tbd":false},"geometry":{"type":"Point","coordinates":[-78.10510114716078,58.45511981262061]}},{"type":"Feature","properties":{"id":"suez-egypt","name":"Suez, Egypt","is_tbd":false},"geometry":{"type":"Point","coordinates":[32.530031659514094,29.97255276207389]}},{"type":"Feature","properties":{"id":"bude-united-kingdom","name":"Bude, United Kingdom","is_tbd":false},"geometry":{"type":"Point","coordinates":[-4.544404967232026,50.828206861825976]}},{"type":"Feature","properties":{"id":"genoa-italy","name":"Genoa, Italy","is_tbd":false},"geometry":{"type":"Point","coordinates":[8.938910676374121,44.410344134870456]}},{"type":"Feature","properties":{"id":"barcelona-spain","name":"Barcelona, Spain","is_tbd":false},"geometry":{"type":"Point","coordinates":[2.168761663816667,41.385621019066804]}},{"type":"Feature","properties":{"id":"mogadishu-somalia","name":"Mogadishu, Somalia","is_tbd":false},"geometry":{"type":"Point","coordinates":[45.344158324054206,2.041165502382199]}},{"type":"Feature","properties":{"id":"dar-es-salaam-tanzania","name":"Dar Es Salaam, Tanzania","is_tbd":false},"geometry":{"type":"Point","coordinates":[39.26969973663296,-6.822986816655458]}},{"type":"Feature","properties":{"id":"maputo-mozambique","name":"Maputo, Mozambique","is_tbd":false},"geometry":{"type":"Point","coordinates":[32.580641975224125,-25.96817092953529]}},{"type":"Feature","properties":{"id":"nacala-mozambique","name":"Nacala, Mozambique","is_tbd":false},"geometry":{"type":"Point","coordinates":[40.68544580401755,-14.565606565477736]}},{"type":"Feature","properties":{"id":"mahajanga-madagascar","name":"Mahajanga, Madagascar","is_tbd":false},"geometry":{"type":"Point","coordinates":[46.31551994061999,-15.713729798683914]}},{"type":"Feature","properties":{"id":"mtunzini-south-africa","name":"Mtunzini, South Africa","is_tbd":false},"geometry":{"type":"Point","coordinates":[31.757864237774868,-28.95043793034779]}},{"type":"Feature","properties":{"id":"cape-town-south-africa","name":"Cape Town, South Africa","is_tbd":false},"geometry":{"type":"Point","coordinates":[18.421985013161873,-33.91909390231581]}},{"type":"Feature","properties":{"id":"port-elizabeth-south-africa","name":"Port Elizabeth, South Africa","is_tbd":false},"geometry":{"type":"Point","coordinates":[25.623273857014794,-33.96249877250486]}},{"type":"Feature","properties":{"id":"muanda-congo-dem-rep-","name":"Muanda, Congo, Dem. Rep.","is_tbd":false},"geometry":{"type":"Point","coordinates":[12.349894588126006,-5.933359258652018]}},{"type":"Feature","properties":{"id":"pointe-noire-congo-rep-","name":"Pointe-Noire, Congo, Rep.","is_tbd":false},"geometry":{"type":"Point","coordinates":[11.863615635735073,-4.778823951269345]}},{"type":"Feature","properties":{"id":"libreville-gabon","name":"Libreville, Gabon","is_tbd":false},"geometry":{"type":"Point","coordinates":[9.454339998738192,0.394512925065328]}},{"type":"Feature","properties":{"id":"lagos-nigeria","name":"Lagos, Nigeria","is_tbd":false},"geometry":{"type":"Point","coordinates":[3.423509310097444,6.439093189951706]}},{"type":"Feature","properties":{"id":"accra-ghana","name":"Accra, Ghana","is_tbd":false},"geometry":{"type":"Point","coordinates":[-0.200914391857737,5.558502094915553]}},{"type":"Feature","properties":{"id":"abidjan-cte-divoire","name":"Abidjan, Côte d'Ivoire","is_tbd":false},"geometry":{"type":"Point","coordinates":[-4.026253478825907,5.323494303815892]}},{"type":"Feature","properties":{"id":"dakar-senegal","name":"Dakar, Senegal","is_tbd":false},"geometry":{"type":"Point","coordinates":[-17.451927561702576,14.686668562834484]}},{"type":"Feature","properties":{"id":"carcavelos-portugal","name":"Carcavelos, Portugal","is_tbd":false},"geometry":{"type":"Point","coordinates":[-9.337919637867088,38.68883841598702]}},{"type":"Feature","properties":{"id":"sharjah-united-arab-emirates","name":"Sharjah, United Arab Emirates","is_tbd":false},"geometry":{"type":"Point","coordinates":[55.39219166719758,25.352333296922296]}},{"type":"Feature","properties":{"id":"sir-abu-nuayr-island-united-arab-emirates","name":"Sir Abu Nu'Ayr Island, United Arab Emirates","is_tbd":false},"geometry":{"type":"Point","coordinates":[54.22111935518839,25.24083604154822]}},{"type":"Feature","properties":{"id":"bunkum-bay-montserrat","name":"Bunkum Bay, Montserrat","is_tbd":false},"geometry":{"type":"Point","coordinates":[-62.22016960060934,16.772302184628728]}},{"type":"Feature","properties":{"id":"noumea-new-caledonia","name":"Noumea, New Caledonia","is_tbd":false},"geometry":{"type":"Point","coordinates":[166.43911648456262,-22.30303249590949]}},{"type":"Feature","properties":{"id":"suva-fiji","name":"Suva, Fiji","is_tbd":false},"geometry":{"type":"Point","coordinates":[178.43744782858138,-18.12363825908207]}},{"type":"Feature","properties":{"id":"quanono-new-caledonia","name":"Quanono, New Caledonia","is_tbd":false},"geometry":{"type":"Point","coordinates":[167.26045379334445,-20.937043135849024]}},{"type":"Feature","properties":{"id":"tadine-new-caledonia","name":"Tadine, New Caledonia","is_tbd":false},"geometry":{"type":"Point","coordinates":[167.8795207376041,-21.54805150520764]}},{"type":"Feature","properties":{"id":"vao-new-caledonia","name":"Vao, New Caledonia","is_tbd":false},"geometry":{"type":"Point","coordinates":[167.49424269022612,-22.671928620931283]}},{"type":"Feature","properties":{"id":"yate-new-caledonia","name":"Yate, New Caledonia","is_tbd":false},"geometry":{"type":"Point","coordinates":[166.94504874334334,-22.15896231236249]}},{"type":"Feature","properties":{"id":"mont-dore-new-caledonia","name":"Mont-Dore, New Caledonia","is_tbd":false},"geometry":{"type":"Point","coordinates":[166.56362811510675,-22.265407748494425]}},{"type":"Feature","properties":{"id":"turkmenbashi-turkmenistan","name":"Turkmenbashi, Turkmenistan","is_tbd":false},"geometry":{"type":"Point","coordinates":[52.962428685450845,40.00342418110577]}},{"type":"Feature","properties":{"id":"siyazan-azerbaijan","name":"Siyazan, Azerbaijan","is_tbd":false},"geometry":{"type":"Point","coordinates":[49.1124069987803,41.07539844631751]}},{"type":"Feature","properties":{"id":"aeng-batu-batu-indonesia","name":"Aeng Batu Batu, Indonesia","is_tbd":false},"geometry":{"type":"Point","coordinates":[119.3846441249855,-5.343255863481147]}},{"type":"Feature","properties":{"id":"isla-de-cozumel-mexico","name":"Isla de Cozumel, Mexico","is_tbd":false},"geometry":{"type":"Point","coordinates":[-86.87916551272748,20.42864372396133]}},{"type":"Feature","properties":{"id":"playa-del-carmen-mexico","name":"Playa del Carmen, Mexico","is_tbd":false},"geometry":{"type":"Point","coordinates":[-87.07021762347813,20.629671822473625]}},{"type":"Feature","properties":{"id":"hanstholm-denmark","name":"Hanstholm, Denmark","is_tbd":false},"geometry":{"type":"Point","coordinates":[8.61617654440579,57.1116419890287]}},{"type":"Feature","properties":{"id":"lesund-norway","name":"Ålesund, Norway","is_tbd":false},"geometry":{"type":"Point","coordinates":[6.174386267600994,62.47148731681639]}},{"type":"Feature","properties":{"id":"molde-norway","name":"Molde, Norway","is_tbd":false},"geometry":{"type":"Point","coordinates":[7.160738107922867,62.737235056023906]}},{"type":"Feature","properties":{"id":"trondheim-norway","name":"Trondheim, Norway","is_tbd":false},"geometry":{"type":"Point","coordinates":[10.39208347505729,63.43101023727209]}},{"type":"Feature","properties":{"id":"sture-norway","name":"Sture, Norway","is_tbd":false},"geometry":{"type":"Point","coordinates":[4.855490717543262,60.621978481842774]}},{"type":"Feature","properties":{"id":"hyllestad-norway","name":"Hyllestad, Norway","is_tbd":false},"geometry":{"type":"Point","coordinates":[5.293393239360199,61.17224731124921]}},{"type":"Feature","properties":{"id":"herlandsvika-norway","name":"Herlandsvika, Norway","is_tbd":false},"geometry":{"type":"Point","coordinates":[6.465755690098064,62.614444121130134]}},{"type":"Feature","properties":{"id":"andalsnes-norway","name":"Andalsnes, Norway","is_tbd":false},"geometry":{"type":"Point","coordinates":[7.681587348323518,62.56582391439912]}},{"type":"Feature","properties":{"id":"brekstad-norway","name":"Brekstad, Norway","is_tbd":false},"geometry":{"type":"Point","coordinates":[9.663116706307704,63.68840785895233]}},{"type":"Feature","properties":{"id":"kristiansund-norway","name":"Kristiansund, Norway","is_tbd":false},"geometry":{"type":"Point","coordinates":[7.729683017376857,63.11078168812796]}},{"type":"Feature","properties":{"id":"bergen-norway","name":"Bergen, Norway","is_tbd":false},"geometry":{"type":"Point","coordinates":[5.332760887254352,60.390702572204816]}},{"type":"Feature","properties":{"id":"equinor-tjeldbergodden-norway","name":"Equinor Tjeldbergodden, Norway","is_tbd":false},"geometry":{"type":"Point","coordinates":[7.906062286958502,63.38756569751715]}},{"type":"Feature","properties":{"id":"heim-norway","name":"Åheim, Norway","is_tbd":false},"geometry":{"type":"Point","coordinates":[5.522348155291837,62.03599154304587]}},{"type":"Feature","properties":{"id":"lefdal-norway","name":"Lefdal, Norway","is_tbd":false},"geometry":{"type":"Point","coordinates":[5.498520047172207,61.93554024603776]}},{"type":"Feature","properties":{"id":"flor-norway","name":"Florø, Norway","is_tbd":false},"geometry":{"type":"Point","coordinates":[4.97585196040373,61.596307262996675]}},{"type":"Feature","properties":{"id":"la-lnea-spain","name":"La Línea, Spain","is_tbd":false},"geometry":{"type":"Point","coordinates":[-5.325190374296483,36.21032161368689]}},{"type":"Feature","properties":{"id":"playa-de-la-ribera-spain","name":"Playa de la Ribera, Spain","is_tbd":false},"geometry":{"type":"Point","coordinates":[-5.313666944959294,35.88680676460581]}},{"type":"Feature","properties":{"id":"tarifa-spain","name":"Tarifa, Spain","is_tbd":false},"geometry":{"type":"Point","coordinates":[-5.604450430371912,36.014312562262376]}},{"type":"Feature","properties":{"id":"playa-de-benitez-spain","name":"Playa de Benitez, Spain","is_tbd":false},"geometry":{"type":"Point","coordinates":[-5.334747036874603,35.89387536092829]}},{"type":"Feature","properties":{"id":"veules-les-roses-france","name":"Veules-les-Roses, France","is_tbd":false},"geometry":{"type":"Point","coordinates":[0.797804107937054,49.877294755008336]}},{"type":"Feature","properties":{"id":"brighton-united-kingdom","name":"Brighton, United Kingdom","is_tbd":false},"geometry":{"type":"Point","coordinates":[-0.134434774132643,50.82847768289497]}},{"type":"Feature","properties":{"id":"balboa-panama","name":"Balboa, Panama","is_tbd":false},"geometry":{"type":"Point","coordinates":[-79.5666784809054,8.950027090050241]}},{"type":"Feature","properties":{"id":"manta-ecuador","name":"Manta, Ecuador","is_tbd":false},"geometry":{"type":"Point","coordinates":[-80.71618938533152,-0.950019548909495]}},{"type":"Feature","properties":{"id":"sarasota-fl-united-states","name":"Sarasota, FL, United States","is_tbd":false},"geometry":{"type":"Point","coordinates":[-82.53962559359209,27.338874145064636]}},{"type":"Feature","properties":{"id":"cancn-mexico","name":"Cancún, Mexico","is_tbd":false},"geometry":{"type":"Point","coordinates":[-86.76756449301183,21.095667620228483]}},{"type":"Feature","properties":{"id":"puerto-barrios-guatemala","name":"Puerto Barrios, Guatemala","is_tbd":false},"geometry":{"type":"Point","coordinates":[-88.59715914417545,15.727178790973397]}},{"type":"Feature","properties":{"id":"maria-chiquita-panama","name":"Maria Chiquita, Panama","is_tbd":false},"geometry":{"type":"Point","coordinates":[-79.75354358290414,9.437552783179825]}},{"type":"Feature","properties":{"id":"ixtapa-mexico","name":"Ixtapa, Mexico","is_tbd":false},"geometry":{"type":"Point","coordinates":[-101.61050704707999,17.664141640212762]}},{"type":"Feature","properties":{"id":"atafu-tokelau","name":"Atafu, Tokelau","is_tbd":false},"geometry":{"type":"Point","coordinates":[-172.51088584218982,-8.559089911026092]}},{"type":"Feature","properties":{"id":"fakaofa-tokelau","name":"Fakaofa, Tokelau","is_tbd":false},"geometry":{"type":"Point","coordinates":[-171.2614703759692,-9.383815953134075]}},{"type":"Feature","properties":{"id":"nukunonu-tokelau","name":"Nukunonu, Tokelau","is_tbd":false},"geometry":{"type":"Point","coordinates":[-171.81150574539947,-9.174596975990482]}},{"type":"Feature","properties":{"id":"umbogintwini-south-africa","name":"Umbogintwini, South Africa","is_tbd":false},"geometry":{"type":"Point","coordinates":[30.901573844940174,-30.02165003123892]}},{"type":"Feature","properties":{"id":"aktau-kazakhstan","name":"Aktau, Kazakhstan","is_tbd":false},"geometry":{"type":"Point","coordinates":[51.19998939997345,43.65000490837545]}},{"type":"Feature","properties":{"id":"macao-beach-dominican-republic","name":"Macao Beach, Dominican Republic","is_tbd":false},"geometry":{"type":"Point","coordinates":[-68.35808046415028,18.649121368332743]}},{"type":"Feature","properties":{"id":"aguadilla-pr-united-states","name":"Aguadilla, PR, United States","is_tbd":false},"geometry":{"type":"Point","coordinates":[-67.15485866027421,18.427498367494792]}},{"type":"Feature","properties":{"id":"ponce-pr-united-states","name":"Ponce, PR, United States","is_tbd":false},"geometry":{"type":"Point","coordinates":[-66.62661196417585,17.98265426367709]}},{"type":"Feature","properties":{"id":"humacao-pr-united-states","name":"Humacao, PR, United States","is_tbd":false},"geometry":{"type":"Point","coordinates":[-65.78126344193551,18.117762679323363]}},{"type":"Feature","properties":{"id":"frederiksted-virgin-islands-u-s-","name":"Frederiksted, Virgin Islands (U.S.)","is_tbd":false},"geometry":{"type":"Point","coordinates":[-64.88153263400059,17.71247648429761]}},{"type":"Feature","properties":{"id":"tagbilaran-philippines","name":"Tagbilaran, Philippines","is_tbd":false},"geometry":{"type":"Point","coordinates":[123.8781708282269,9.675424800166496]}},{"type":"Feature","properties":{"id":"baclayon-philippines","name":"Baclayon, Philippines","is_tbd":false},"geometry":{"type":"Point","coordinates":[123.91354677972922,9.622558270780445]}},{"type":"Feature","properties":{"id":"bacong-philippines","name":"Bacong, Philippines","is_tbd":false},"geometry":{"type":"Point","coordinates":[123.29495595749441,9.246330876791518]}},{"type":"Feature","properties":{"id":"valverde-canary-islands-spain","name":"Valverde, Canary Islands, Spain","is_tbd":false},"geometry":{"type":"Point","coordinates":[-17.890887852846134,27.820221110808575]}},{"type":"Feature","properties":{"id":"san-sebastian-de-la-gomera-canary-islands-spain","name":"San Sebastian de la Gomera, Canary Islands, Spain","is_tbd":false},"geometry":{"type":"Point","coordinates":[-17.108172720353622,28.08796545986226]}},{"type":"Feature","properties":{"id":"los-realejos-canary-islands-spain","name":"Los Realejos, Canary Islands, Spain","is_tbd":false},"geometry":{"type":"Point","coordinates":[-16.586438673352916,28.39755177786995]}},{"type":"Feature","properties":{"id":"sardina-canary-islands-spain","name":"Sardina, Canary Islands, Spain","is_tbd":false},"geometry":{"type":"Point","coordinates":[-15.694032078979518,28.149917514296163]}},{"type":"Feature","properties":{"id":"arrecife-canary-islands-spain","name":"Arrecife, Canary Islands, Spain","is_tbd":false},"geometry":{"type":"Point","coordinates":[-13.547596831473555,28.959501465241317]}},{"type":"Feature","properties":{"id":"puerto-del-rosario-canary-islands-spain","name":"Puerto del Rosario, Canary Islands, Spain","is_tbd":false},"geometry":{"type":"Point","coordinates":[-13.862208425007054,28.496502747357255]}},{"type":"Feature","properties":{"id":"morrojable-canary-islands-spain","name":"Morrojable, Canary Islands, Spain","is_tbd":false},"geometry":{"type":"Point","coordinates":[-15.590405442922503,27.745256470964563]}},{"type":"Feature","properties":{"id":"aguimes-canary-islands-spain","name":"Aguimes, Canary Islands, Spain","is_tbd":false},"geometry":{"type":"Point","coordinates":[-15.390735174214711,27.89546221316084]}},{"type":"Feature","properties":{"id":"taytay-philippines","name":"Taytay, Philippines","is_tbd":false},"geometry":{"type":"Point","coordinates":[119.50033137706257,10.819711349018348]}},{"type":"Feature","properties":{"id":"coron-philippines","name":"Coron, Philippines","is_tbd":false},"geometry":{"type":"Point","coordinates":[120.20069709185529,12.005055681083121]}},{"type":"Feature","properties":{"id":"roxas-city-philippines","name":"Roxas City, Philippines","is_tbd":false},"geometry":{"type":"Point","coordinates":[122.7499872781008,11.583329743234799]}},{"type":"Feature","properties":{"id":"pasacao-philippines","name":"Pasacao, Philippines","is_tbd":false},"geometry":{"type":"Point","coordinates":[122.95064631564017,13.547780735355417]}},{"type":"Feature","properties":{"id":"masbate-city-philippines","name":"Masbate City, Philippines","is_tbd":false},"geometry":{"type":"Point","coordinates":[123.61666146882945,12.36667735747352]}},{"type":"Feature","properties":{"id":"bogo-philippines","name":"Bogo, Philippines","is_tbd":false},"geometry":{"type":"Point","coordinates":[124.00765240278426,11.045876992172907]}},{"type":"Feature","properties":{"id":"naga-philippines","name":"Naga, Philippines","is_tbd":false},"geometry":{"type":"Point","coordinates":[123.69144168929145,10.238241908341536]}},{"type":"Feature","properties":{"id":"cagayan-de-oro-philippines","name":"Cagayan de Oro, Philippines","is_tbd":false},"geometry":{"type":"Point","coordinates":[124.6318951246283,8.454228346754633]}},{"type":"Feature","properties":{"id":"buenavista-philippines","name":"Buenavista, Philippines","is_tbd":false},"geometry":{"type":"Point","coordinates":[125.42073733924198,8.968922103740454]}},{"type":"Feature","properties":{"id":"toledo-philippines","name":"Toledo, Philippines","is_tbd":false},"geometry":{"type":"Point","coordinates":[123.6352405572292,10.376249136547585]}},{"type":"Feature","properties":{"id":"san-carlos-philippines","name":"San Carlos, Philippines","is_tbd":false},"geometry":{"type":"Point","coordinates":[123.41287743350395,10.48374478941048]}},{"type":"Feature","properties":{"id":"san-remigio-philippines","name":"San Remigio, Philippines","is_tbd":false},"geometry":{"type":"Point","coordinates":[123.93633897674127,11.083326819623835]}},{"type":"Feature","properties":{"id":"talisay-philippines","name":"Talisay, Philippines","is_tbd":false},"geometry":{"type":"Point","coordinates":[122.96776056132833,10.739403490193098]}},{"type":"Feature","properties":{"id":"leganes-philippines","name":"Leganes, Philippines","is_tbd":false},"geometry":{"type":"Point","coordinates":[122.58944051683451,10.786581108825175]}},{"type":"Feature","properties":{"id":"milagros-philippines","name":"Milagros, Philippines","is_tbd":false},"geometry":{"type":"Point","coordinates":[123.50909318565695,12.218124597827]}},{"type":"Feature","properties":{"id":"roxas-philippines","name":"Roxas, Philippines","is_tbd":false},"geometry":{"type":"Point","coordinates":[121.52774693301129,12.58643507584381]}},{"type":"Feature","properties":{"id":"boracay-philippines","name":"Boracay, Philippines","is_tbd":false},"geometry":{"type":"Point","coordinates":[121.94481206724518,11.949242135456188]}},{"type":"Feature","properties":{"id":"san-juan-philippines","name":"San Juan, Philippines","is_tbd":false},"geometry":{"type":"Point","coordinates":[121.44886515295312,13.809927621665082]}},{"type":"Feature","properties":{"id":"saint-franois-guadeloupe","name":"Saint-François, Guadeloupe","is_tbd":false},"geometry":{"type":"Point","coordinates":[-61.274455111163135,16.2510994263896]}},{"type":"Feature","properties":{"id":"beausejour-guadeloupe","name":"Beausejour, Guadeloupe","is_tbd":false},"geometry":{"type":"Point","coordinates":[-61.07386931575988,16.303571371033115]}},{"type":"Feature","properties":{"id":"saint-louis-guadeloupe","name":"Saint-Louis, Guadeloupe","is_tbd":false},"geometry":{"type":"Point","coordinates":[-61.31909619281954,15.953416689646957]}},{"type":"Feature","properties":{"id":"capesterre-belle-eau-guadeloupe","name":"Capesterre-Belle-Eau, Guadeloupe","is_tbd":false},"geometry":{"type":"Point","coordinates":[-61.56468928055868,16.042421082706255]}},{"type":"Feature","properties":{"id":"terre-de-haut-guadeloupe","name":"Terre-de-Haut, Guadeloupe","is_tbd":false},"geometry":{"type":"Point","coordinates":[-61.57883721975544,15.87301473693961]}},{"type":"Feature","properties":{"id":"portrane-ireland","name":"Portrane, Ireland","is_tbd":false},"geometry":{"type":"Point","coordinates":[-6.114621764040294,53.49320125868067]}},{"type":"Feature","properties":{"id":"caithness-united-kingdom","name":"Caithness, United Kingdom","is_tbd":false},"geometry":{"type":"Point","coordinates":[-3.79424967588497,58.56884330892095]}},{"type":"Feature","properties":{"id":"zhuhai-china","name":"Zhuhai, China","is_tbd":false},"geometry":{"type":"Point","coordinates":[113.57672717496305,22.27071213139365]}},{"type":"Feature","properties":{"id":"wenchang-china","name":"Wenchang, China","is_tbd":false},"geometry":{"type":"Point","coordinates":[110.76181217688722,20.04531942945269]}},{"type":"Feature","properties":{"id":"prince-rupert-bc-canada","name":"Prince Rupert, BC, Canada","is_tbd":false},"geometry":{"type":"Point","coordinates":[-130.3263225254466,54.313074177273876]}},{"type":"Feature","properties":{"id":"ketchikan-ak-united-states","name":"Ketchikan, AK, United States","is_tbd":false},"geometry":{"type":"Point","coordinates":[-131.64781638709383,55.34210213926801]}},{"type":"Feature","properties":{"id":"lisbon-portugal","name":"Lisbon, Portugal","is_tbd":false},"geometry":{"type":"Point","coordinates":[-9.15018874559317,38.72568313629117]}},{"type":"Feature","properties":{"id":"salinas-ecuador","name":"Salinas, Ecuador","is_tbd":false},"geometry":{"type":"Point","coordinates":[-81.00906207423142,-2.228488012519335]}},{"type":"Feature","properties":{"id":"stavanger-norway","name":"Stavanger, Norway","is_tbd":false},"geometry":{"type":"Point","coordinates":[5.730792816784998,58.97083532287829]}},{"type":"Feature","properties":{"id":"seaton-sluice-united-kingdom","name":"Seaton Sluice, United Kingdom","is_tbd":false},"geometry":{"type":"Point","coordinates":[-1.474409557421836,55.08361265840844]}},{"type":"Feature","properties":{"id":"komesu-japan","name":"Komesu, Japan","is_tbd":false},"geometry":{"type":"Point","coordinates":[127.70079480862088,26.087758925965943]}},{"type":"Feature","properties":{"id":"ysanden-norway","name":"Øysanden, Norway","is_tbd":false},"geometry":{"type":"Point","coordinates":[10.216424592440092,63.33349269467911]}},{"type":"Feature","properties":{"id":"cabo-san-juan-equatorial-guinea","name":"Cabo San Juan, Equatorial Guinea","is_tbd":false},"geometry":{"type":"Point","coordinates":[9.341400937157744,1.175260843994778]}},{"type":"Feature","properties":{"id":"corisco-equatorial-guinea","name":"Corisco, Equatorial Guinea","is_tbd":false},"geometry":{"type":"Point","coordinates":[9.319591736686249,0.934855533288015]}},{"type":"Feature","properties":{"id":"great-bay-beach-saint-martin","name":"Great Bay Beach, Saint Martin","is_tbd":false},"geometry":{"type":"Point","coordinates":[-63.055056877112094,18.02447108294615]}},{"type":"Feature","properties":{"id":"basseterre-saint-kitts-and-nevis","name":"Basseterre, Saint Kitts and Nevis","is_tbd":false},"geometry":{"type":"Point","coordinates":[-62.73121677449295,17.29863882853087]}},{"type":"Feature","properties":{"id":"gustavia-saint-barthlemy","name":"Gustavia, Saint Barthélemy","is_tbd":false},"geometry":{"type":"Point","coordinates":[-62.85056483447653,17.897910609462002]}},{"type":"Feature","properties":{"id":"great-level-bay-bonaire-sint-eustatius-and-saba","name":"Great Level Bay, Bonaire, Sint Eustatius and Saba","is_tbd":false},"geometry":{"type":"Point","coordinates":[-63.244216899359486,17.61512081946566]}},{"type":"Feature","properties":{"id":"gallows-bay-bonaire-sint-eustatius-and-saba","name":"Gallows Bay, Bonaire, Sint Eustatius and Saba","is_tbd":false},"geometry":{"type":"Point","coordinates":[-62.985525676369036,17.475916931774293]}},{"type":"Feature","properties":{"id":"nago-japan","name":"Nago, Japan","is_tbd":false},"geometry":{"type":"Point","coordinates":[127.97732749763682,26.591537746166523]}},{"type":"Feature","properties":{"id":"kagoshima-japan","name":"Kagoshima, Japan","is_tbd":false},"geometry":{"type":"Point","coordinates":[130.55711082634323,31.596550387213426]}},{"type":"Feature","properties":{"id":"praia-cape-verde","name":"Praia, Cape Verde","is_tbd":false},"geometry":{"type":"Point","coordinates":[-23.521210371541116,14.923187578095423]}},{"type":"Feature","properties":{"id":"sal-rei-cape-verde","name":"Sal Rei, Cape Verde","is_tbd":false},"geometry":{"type":"Point","coordinates":[-22.919037946563236,16.17717201927198]}},{"type":"Feature","properties":{"id":"murdeira-cape-verde","name":"Murdeira, Cape Verde","is_tbd":false},"geometry":{"type":"Point","coordinates":[-22.9353099076921,16.677109657861166]}},{"type":"Feature","properties":{"id":"tarrafalsao-nicolau-cape-verde","name":"Tarrafal—Sao Nicolau, Cape Verde","is_tbd":false},"geometry":{"type":"Point","coordinates":[-24.357159486377526,16.565883323041106]}},{"type":"Feature","properties":{"id":"sao-pedro-cape-verde","name":"Sao Pedro, Cape Verde","is_tbd":false},"geometry":{"type":"Point","coordinates":[-25.0608088902502,16.8234218118491]}},{"type":"Feature","properties":{"id":"tarrafalsantiago-cape-verde","name":"Tarrafal—Santiago, Cape Verde","is_tbd":false},"geometry":{"type":"Point","coordinates":[-23.7510686071451,15.27684757681726]}},{"type":"Feature","properties":{"id":"porto-novosanto-antao-cape-verde","name":"Porto Novo—Santo Antao, Cape Verde","is_tbd":false},"geometry":{"type":"Point","coordinates":[-25.059441703718193,17.019200480931318]}},{"type":"Feature","properties":{"id":"nova-sintra-cape-verde","name":"Nova Sintra, Cape Verde","is_tbd":false},"geometry":{"type":"Point","coordinates":[-24.695403875668973,14.872992709661276]}},{"type":"Feature","properties":{"id":"sao-filipe-cape-verde","name":"Sao Filipe, Cape Verde","is_tbd":false},"geometry":{"type":"Point","coordinates":[-24.500921591567334,14.89714197148686]}},{"type":"Feature","properties":{"id":"vila-do-maio-cape-verde","name":"Vila do Maio, Cape Verde","is_tbd":false},"geometry":{"type":"Point","coordinates":[-23.20978481090731,15.138355405769431]}},{"type":"Feature","properties":{"id":"miyazaki-japan","name":"Miyazaki, Japan","is_tbd":false},"geometry":{"type":"Point","coordinates":[131.29461013126004,32.09766150238511]}},{"type":"Feature","properties":{"id":"okinawa-japan","name":"Okinawa, Japan","is_tbd":false},"geometry":{"type":"Point","coordinates":[127.68079433194683,26.21237003963759]}},{"type":"Feature","properties":{"id":"akita-japan","name":"Akita, Japan","is_tbd":false},"geometry":{"type":"Point","coordinates":[140.34362715835178,39.692020829915464]}},{"type":"Feature","properties":{"id":"ishikari-japan","name":"Ishikari, Japan","is_tbd":false},"geometry":{"type":"Point","coordinates":[141.31552588391204,43.17139041277872]}},{"type":"Feature","properties":{"id":"sendai-japan","name":"Sendai, Japan","is_tbd":false},"geometry":{"type":"Point","coordinates":[140.75820205997584,38.314358270085165]}},{"type":"Feature","properties":{"id":"ibaraki-japan","name":"Ibaraki, Japan","is_tbd":false},"geometry":{"type":"Point","coordinates":[140.26994556992358,36.34218453650374]}},{"type":"Feature","properties":{"id":"ciudad-lzaro-crdenas-mexico","name":"Ciudad Lázaro Cárdenas, Mexico","is_tbd":false},"geometry":{"type":"Point","coordinates":[-102.1943469795801,17.956770832776215]}},{"type":"Feature","properties":{"id":"manzanillo-mexico","name":"Manzanillo, Mexico","is_tbd":false},"geometry":{"type":"Point","coordinates":[-104.30817604853006,19.085820767886304]}},{"type":"Feature","properties":{"id":"lurin-peru","name":"Lurin, Peru","is_tbd":false},"geometry":{"type":"Point","coordinates":[-76.87428536869149,-12.27852723926614]}},{"type":"Feature","properties":{"id":"ilo-peru","name":"Ilo, Peru","is_tbd":false},"geometry":{"type":"Point","coordinates":[-71.32370719040833,-17.641170392665686]}},{"type":"Feature","properties":{"id":"toahotu-french-polynesia","name":"To'ahotu, French Polynesia","is_tbd":false},"geometry":{"type":"Point","coordinates":[-149.32336417902889,-17.750458444434116]}},{"type":"Feature","properties":{"id":"iskele-cyprus","name":"Iskele, Cyprus","is_tbd":false},"geometry":{"type":"Point","coordinates":[33.919474747487044,35.28438782609257]}},{"type":"Feature","properties":{"id":"kg-buntai-malaysia","name":"Kg Buntai, Malaysia","is_tbd":false},"geometry":{"type":"Point","coordinates":[110.29362075022723,1.675088253416448]}},{"type":"Feature","properties":{"id":"hanko-finland","name":"Hanko, Finland","is_tbd":false},"geometry":{"type":"Point","coordinates":[22.968222026940197,59.82321000411133]}},{"type":"Feature","properties":{"id":"helsinki-finland","name":"Helsinki, Finland","is_tbd":false},"geometry":{"type":"Point","coordinates":[24.932478447942714,60.171075418252144]}},{"type":"Feature","properties":{"id":"stockholm-sweden","name":"Stockholm, Sweden","is_tbd":false},"geometry":{"type":"Point","coordinates":[18.062854408198632,59.33220864029596]}},{"type":"Feature","properties":{"id":"kotka-finland","name":"Kotka, Finland","is_tbd":false},"geometry":{"type":"Point","coordinates":[26.883551284533723,60.50104138217219]}},{"type":"Feature","properties":{"id":"allen-philippines","name":"Allen, Philippines","is_tbd":false},"geometry":{"type":"Point","coordinates":[124.28234656591403,12.501379842633298]}},{"type":"Feature","properties":{"id":"santa-magdalena-philippines","name":"Santa Magdalena, Philippines","is_tbd":false},"geometry":{"type":"Point","coordinates":[124.10709098153629,12.645301175945292]}},{"type":"Feature","properties":{"id":"apia-samoa","name":"Apia, Samoa","is_tbd":false},"geometry":{"type":"Point","coordinates":[-171.7666787783535,-13.83340294727057]}},{"type":"Feature","properties":{"id":"rarotonga-cook-islands","name":"Rarotonga, Cook Islands","is_tbd":false},"geometry":{"type":"Point","coordinates":[-159.76971462086553,-21.22436850158269]}},{"type":"Feature","properties":{"id":"aitutaki-cook-islands","name":"Aitutaki, Cook Islands","is_tbd":false},"geometry":{"type":"Point","coordinates":[-159.77489955371595,-18.825717893638625]}},{"type":"Feature","properties":{"id":"alofi-niue","name":"Alofi, Niue","is_tbd":false},"geometry":{"type":"Point","coordinates":[-169.91670374001632,-19.016700578490827]}},{"type":"Feature","properties":{"id":"vaitape-french-polynesia","name":"Vaitape, French Polynesia","is_tbd":false},"geometry":{"type":"Point","coordinates":[-151.74953139862995,-16.506277798147664]}},{"type":"Feature","properties":{"id":"marina-di-ragusa-italy","name":"Marina di Ragusa, Italy","is_tbd":false},"geometry":{"type":"Point","coordinates":[14.550291964997001,36.784806017807455]}},{"type":"Feature","properties":{"id":"point-salines-grenada","name":"Point Salines, Grenada","is_tbd":false},"geometry":{"type":"Point","coordinates":[-61.79057834201731,12.008822041918165]}},{"type":"Feature","properties":{"id":"kingstown-saint-vincent-and-the-grenadines","name":"Kingstown, Saint Vincent and the Grenadines","is_tbd":false},"geometry":{"type":"Point","coordinates":[-61.208256427590186,13.145437164552902]}},{"type":"Feature","properties":{"id":"chateaubelair-saint-vincent-and-the-grenadines","name":"Chateaubelair, Saint Vincent and the Grenadines","is_tbd":false},"geometry":{"type":"Point","coordinates":[-61.24083697091656,13.29091633307408]}},{"type":"Feature","properties":{"id":"owia-saint-vincent-and-the-grenadines","name":"Owia, Saint Vincent and the Grenadines","is_tbd":false},"geometry":{"type":"Point","coordinates":[-61.14277795835066,13.373100524281597]}},{"type":"Feature","properties":{"id":"conference-grenada","name":"Conference, Grenada","is_tbd":false},"geometry":{"type":"Point","coordinates":[-61.606388469768945,12.161209900388002]}},{"type":"Feature","properties":{"id":"bequia-saint-vincent-and-the-grenadines","name":"Bequia, Saint Vincent and the Grenadines","is_tbd":false},"geometry":{"type":"Point","coordinates":[-61.24470659708123,12.997564199055091]}},{"type":"Feature","properties":{"id":"mustique-saint-vincent-and-the-grenadines","name":"Mustique, Saint Vincent and the Grenadines","is_tbd":false},"geometry":{"type":"Point","coordinates":[-61.1871260714659,12.877712443604963]}},{"type":"Feature","properties":{"id":"canouan-saint-vincent-and-the-grenadines","name":"Canouan, Saint Vincent and the Grenadines","is_tbd":false},"geometry":{"type":"Point","coordinates":[-61.338957018594144,12.699637527037794]}},{"type":"Feature","properties":{"id":"union-island-saint-vincent-and-the-grenadines","name":"Union Island, Saint Vincent and the Grenadines","is_tbd":false},"geometry":{"type":"Point","coordinates":[-61.44318057757454,12.611404908417342]}},{"type":"Feature","properties":{"id":"carriacou-grenada","name":"Carriacou, Grenada","is_tbd":false},"geometry":{"type":"Point","coordinates":[-61.478617564188966,12.473707095396747]}},{"type":"Feature","properties":{"id":"varberg-sweden","name":"Varberg, Sweden","is_tbd":false},"geometry":{"type":"Point","coordinates":[12.251276956833749,57.10530906897654]}},{"type":"Feature","properties":{"id":"laeso-denmark","name":"Laeso, Denmark","is_tbd":false},"geometry":{"type":"Point","coordinates":[10.887135086818404,57.256995553834685]}},{"type":"Feature","properties":{"id":"saint-hilaire-de-riez-france","name":"Saint-Hilaire-de-Riez, France","is_tbd":false},"geometry":{"type":"Point","coordinates":[-1.968311908440882,46.693996052542445]}},{"type":"Feature","properties":{"id":"hirtshals-denmark","name":"Hirtshals, Denmark","is_tbd":false},"geometry":{"type":"Point","coordinates":[9.959261211923007,57.58819362027518]}},{"type":"Feature","properties":{"id":"larvik-norway","name":"Larvik, Norway","is_tbd":false},"geometry":{"type":"Point","coordinates":[10.01639007770197,59.081111065010646]}},{"type":"Feature","properties":{"id":"port-erin-isle-of-man","name":"Port Erin, Isle of Man","is_tbd":false},"geometry":{"type":"Point","coordinates":[-4.760450951013183,54.087201561009294]}},{"type":"Feature","properties":{"id":"hobyo-somalia","name":"Hobyo, Somalia","is_tbd":false},"geometry":{"type":"Point","coordinates":[48.522036291699095,5.350156507108466]}},{"type":"Feature","properties":{"id":"kismayo-somalia","name":"Kismayo, Somalia","is_tbd":false},"geometry":{"type":"Point","coordinates":[42.54516145608392,-0.362712155658784]}},{"type":"Feature","properties":{"id":"bulobulo-indonesia","name":"Bulobulo, Indonesia","is_tbd":false},"geometry":{"type":"Point","coordinates":[119.80926998945384,-5.669066725303594]}},{"type":"Feature","properties":{"id":"kawinda-nae-indonesia","name":"Kawinda Nae, Indonesia","is_tbd":false},"geometry":{"type":"Point","coordinates":[117.86156300673215,-8.108065089693554]}},{"type":"Feature","properties":{"id":"sangatta-indonesia","name":"Sangatta, Indonesia","is_tbd":false},"geometry":{"type":"Point","coordinates":[117.53548901897605,0.324519239745939]}},{"type":"Feature","properties":{"id":"towale-indonesia","name":"Towale, Indonesia","is_tbd":false},"geometry":{"type":"Point","coordinates":[119.66607832995916,-0.711934579631276]}},{"type":"Feature","properties":{"id":"senggigi-indonesia","name":"Senggigi, Indonesia","is_tbd":false},"geometry":{"type":"Point","coordinates":[116.04728206542367,-8.48545680087716]}},{"type":"Feature","properties":{"id":"sanur-indonesia","name":"Sanur, Indonesia","is_tbd":false},"geometry":{"type":"Point","coordinates":[115.25961172497816,-8.695053648699542]}},{"type":"Feature","properties":{"id":"puger-indonesia","name":"Puger, Indonesia","is_tbd":false},"geometry":{"type":"Point","coordinates":[113.45680538491618,-8.374136096775032]}},{"type":"Feature","properties":{"id":"jimbaran-indonesia","name":"Jimbaran, Indonesia","is_tbd":false},"geometry":{"type":"Point","coordinates":[115.15980710818079,-8.784071344370716]}},{"type":"Feature","properties":{"id":"mentigi-indonesia","name":"Mentigi, Indonesia","is_tbd":false},"geometry":{"type":"Point","coordinates":[107.69636024691962,-3.195985843905447]}},{"type":"Feature","properties":{"id":"ancol-indonesia","name":"Ancol, Indonesia","is_tbd":false},"geometry":{"type":"Point","coordinates":[106.8333725770182,-6.129010757137053]}},{"type":"Feature","properties":{"id":"sungailiat-indonesia","name":"Sungailiat, Indonesia","is_tbd":false},"geometry":{"type":"Point","coordinates":[106.13249416727675,-1.851497937336347]}},{"type":"Feature","properties":{"id":"anyer-indonesia","name":"Anyer, Indonesia","is_tbd":false},"geometry":{"type":"Point","coordinates":[105.88391035900096,-6.073698462563101]}},{"type":"Feature","properties":{"id":"kalianda-indonesia","name":"Kalianda, Indonesia","is_tbd":false},"geometry":{"type":"Point","coordinates":[105.58491154737666,-5.76925311382891]}},{"type":"Feature","properties":{"id":"takesung-indonesia","name":"Takesung, Indonesia","is_tbd":false},"geometry":{"type":"Point","coordinates":[114.66681429336009,-3.882827780552674]}},{"type":"Feature","properties":{"id":"ujung-pankah-indonesia","name":"Ujung Pankah, Indonesia","is_tbd":false},"geometry":{"type":"Point","coordinates":[112.5982366571968,-6.953337827182423]}},{"type":"Feature","properties":{"id":"bawean-indonesia","name":"Bawean, Indonesia","is_tbd":false},"geometry":{"type":"Point","coordinates":[112.58561476845827,-5.793490872092491]}},{"type":"Feature","properties":{"id":"sungsang-indonesia","name":"Sungsang, Indonesia","is_tbd":false},"geometry":{"type":"Point","coordinates":[104.87448724596143,-2.295321954856433]}},{"type":"Feature","properties":{"id":"muntok-indonesia","name":"Muntok, Indonesia","is_tbd":false},"geometry":{"type":"Point","coordinates":[105.16430637658792,-2.065178938420132]}},{"type":"Feature","properties":{"id":"ruperts-bay-saint-helena-ascension-and-tristan-da-cunha","name":"Rupert's Bay, Saint Helena, Ascension and Tristan da Cunha","is_tbd":false},"geometry":{"type":"Point","coordinates":[-5.711485529379672,-15.91859454291577]}},{"type":"Feature","properties":{"id":"sao-tome-sao-tome-and-principe","name":"Sao Tome, Sao Tome and Principe","is_tbd":false},"geometry":{"type":"Point","coordinates":[6.733297177107545,0.333291349735191]}},{"type":"Feature","properties":{"id":"annobon-equatorial-guinea","name":"Annobon, Equatorial Guinea","is_tbd":false},"geometry":{"type":"Point","coordinates":[5.636850199935225,-1.435134530086856]}},{"type":"Feature","properties":{"id":"thanlyin-myanmar","name":"Thanlyin, Myanmar","is_tbd":false},"geometry":{"type":"Point","coordinates":[96.24822399826931,16.758743940312797]}},{"type":"Feature","properties":{"id":"maroochydore-qld-australia","name":"Maroochydore, QLD, Australia","is_tbd":false},"geometry":{"type":"Point","coordinates":[153.08944349704078,-26.65184454476156]}},{"type":"Feature","properties":{"id":"wurrumiyanga-nt-australia","name":"Wurrumiyanga, NT, Australia","is_tbd":false},"geometry":{"type":"Point","coordinates":[130.6321107732135,-11.762586195479145]}},{"type":"Feature","properties":{"id":"bod-norway","name":"Bodø, Norway","is_tbd":false},"geometry":{"type":"Point","coordinates":[14.400076241225548,67.2860008218803]}},{"type":"Feature","properties":{"id":"narvik-norway","name":"Narvik, Norway","is_tbd":false},"geometry":{"type":"Point","coordinates":[17.55999831911393,68.42055748484364]}},{"type":"Feature","properties":{"id":"nesna-norway","name":"Nesna, Norway","is_tbd":false},"geometry":{"type":"Point","coordinates":[13.018192454539985,66.19807367745253]}},{"type":"Feature","properties":{"id":"sandnessjen-norway","name":"Sandnessjøen, Norway","is_tbd":false},"geometry":{"type":"Point","coordinates":[12.631461771472601,66.02154867057013]}},{"type":"Feature","properties":{"id":"brnnysund-norway","name":"Brønnøysund, Norway","is_tbd":false},"geometry":{"type":"Point","coordinates":[12.20774380992006,65.47356212044554]}},{"type":"Feature","properties":{"id":"rrvik-norway","name":"Rørvik, Norway","is_tbd":false},"geometry":{"type":"Point","coordinates":[11.23734654814055,64.86207691166626]}},{"type":"Feature","properties":{"id":"utskarpen-norway","name":"Utskarpen, Norway","is_tbd":false},"geometry":{"type":"Point","coordinates":[13.56362663846275,66.29295854243085]}},{"type":"Feature","properties":{"id":"hemnesberget-norway","name":"Hemnesberget, Norway","is_tbd":false},"geometry":{"type":"Point","coordinates":[13.624454232090756,66.2241605995992]}},{"type":"Feature","properties":{"id":"mo-i-rana-norway","name":"Mo I Rana, Norway","is_tbd":false},"geometry":{"type":"Point","coordinates":[14.141983162343877,66.31371064643949]}},{"type":"Feature","properties":{"id":"lucena-philippines","name":"Lucena, Philippines","is_tbd":false},"geometry":{"type":"Point","coordinates":[121.61229277155476,13.935263338898494]}},{"type":"Feature","properties":{"id":"iloilo-city-philippines","name":"Iloilo City, Philippines","is_tbd":false},"geometry":{"type":"Point","coordinates":[122.56210600000068,10.72015]}},{"type":"Feature","properties":{"id":"san-jose-philippines","name":"San Jose, Philippines","is_tbd":false},"geometry":{"type":"Point","coordinates":[121.05011055262318,12.362575543909458]}},{"type":"Feature","properties":{"id":"dumaguete-philippines","name":"Dumaguete, Philippines","is_tbd":false},"geometry":{"type":"Point","coordinates":[123.2814810422108,9.29556291878194]}},{"type":"Feature","properties":{"id":"rdvig-denmark","name":"Rødvig, Denmark","is_tbd":false},"geometry":{"type":"Point","coordinates":[12.371850755501782,55.2561408184566]}},{"type":"Feature","properties":{"id":"rnne-denmark","name":"Rønne, Denmark","is_tbd":false},"geometry":{"type":"Point","coordinates":[14.708323709697623,55.10101672136463]}},{"type":"Feature","properties":{"id":"great-nicobar-india","name":"Great Nicobar, India","is_tbd":false},"geometry":{"type":"Point","coordinates":[93.92740511526486,7.031330621106093]}},{"type":"Feature","properties":{"id":"kamorta-india","name":"Kamorta, India","is_tbd":false},"geometry":{"type":"Point","coordinates":[93.48140933746222,8.172231912837844]}},{"type":"Feature","properties":{"id":"car-nicobar-india","name":"Car Nicobar, India","is_tbd":false},"geometry":{"type":"Point","coordinates":[92.81644398821757,9.177491191418767]}},{"type":"Feature","properties":{"id":"little-andaman-india","name":"Little Andaman, India","is_tbd":false},"geometry":{"type":"Point","coordinates":[92.59715703418672,10.709053093381243]}},{"type":"Feature","properties":{"id":"port-blair-india","name":"Port Blair, India","is_tbd":false},"geometry":{"type":"Point","coordinates":[92.72647823163734,11.623381524823515]}},{"type":"Feature","properties":{"id":"havelock-india","name":"Havelock, India","is_tbd":false},"geometry":{"type":"Point","coordinates":[92.98756203105901,11.97605767788437]}},{"type":"Feature","properties":{"id":"long-island-india","name":"Long Island, India","is_tbd":false},"geometry":{"type":"Point","coordinates":[92.9350718338683,12.396491032226322]}},{"type":"Feature","properties":{"id":"rangat-india","name":"Rangat, India","is_tbd":false},"geometry":{"type":"Point","coordinates":[92.91385602858466,12.506947715390424]}},{"type":"Feature","properties":{"id":"cloverdale-or-united-states","name":"Cloverdale, OR, United States","is_tbd":false},"geometry":{"type":"Point","coordinates":[-123.95636439138569,45.2310536230687]}},{"type":"Feature","properties":{"id":"topolobampo-mexico","name":"Topolobampo, Mexico","is_tbd":false},"geometry":{"type":"Point","coordinates":[-109.0503685702488,25.600694810119222]}},{"type":"Feature","properties":{"id":"la-paz-mexico","name":"La Paz, Mexico","is_tbd":false},"geometry":{"type":"Point","coordinates":[-110.30548177447065,24.102573212618296]}},{"type":"Feature","properties":{"id":"kingston-on-canada","name":"Kingston, ON, Canada","is_tbd":false},"geometry":{"type":"Point","coordinates":[-76.47933739888322,44.23153908355334]}},{"type":"Feature","properties":{"id":"mahuma-curaao","name":"Mahuma, Curaçao","is_tbd":false},"geometry":{"type":"Point","coordinates":[-68.95694320562434,12.168897494151253]}},{"type":"Feature","properties":{"id":"sydney-nsw-australia","name":"Sydney, NSW, Australia","is_tbd":false},"geometry":{"type":"Point","coordinates":[151.2070471969785,-33.86969726258806]}},{"type":"Feature","properties":{"id":"honiara-solomon-islands","name":"Honiara, Solomon Islands","is_tbd":false},"geometry":{"type":"Point","coordinates":[159.94979002697463,-9.429092662827514]}},{"type":"Feature","properties":{"id":"port-moresby-papua-new-guinea","name":"Port Moresby, Papua New Guinea","is_tbd":false},"geometry":{"type":"Point","coordinates":[147.18851977030332,-9.479605545733023]}},{"type":"Feature","properties":{"id":"auki-solomon-islands","name":"Auki, Solomon Islands","is_tbd":false},"geometry":{"type":"Point","coordinates":[160.7013275805153,-8.774649361837334]}},{"type":"Feature","properties":{"id":"noro-solomon-islands","name":"Noro, Solomon Islands","is_tbd":false},"geometry":{"type":"Point","coordinates":[157.19066112219306,-8.242077358023465]}},{"type":"Feature","properties":{"id":"taro-solomon-islands","name":"Taro, Solomon Islands","is_tbd":false},"geometry":{"type":"Point","coordinates":[156.39591070863824,-6.708991470563745]}},{"type":"Feature","properties":{"id":"saint-pierre-saint-pierre-and-miquelon","name":"Saint-Pierre, Saint Pierre and Miquelon","is_tbd":false},"geometry":{"type":"Point","coordinates":[-56.18063111336771,46.7758434822525]}},{"type":"Feature","properties":{"id":"miquelon-langlade-saint-pierre-and-miquelon","name":"Miquelon-Langlade, Saint Pierre and Miquelon","is_tbd":false},"geometry":{"type":"Point","coordinates":[-56.34992308328289,47.08366803819928]}},{"type":"Feature","properties":{"id":"fortune-nl-canada","name":"Fortune, NL, Canada","is_tbd":false},"geometry":{"type":"Point","coordinates":[-55.827286637117496,47.07198160649784]}},{"type":"Feature","properties":{"id":"lamaline-nl-canada","name":"Lamaline, NL, Canada","is_tbd":false},"geometry":{"type":"Point","coordinates":[-55.80327542365784,46.86895214131991]}},{"type":"Feature","properties":{"id":"narragansett-ri-united-states","name":"Narragansett, RI, United States","is_tbd":false},"geometry":{"type":"Point","coordinates":[-71.44280929994497,41.44137310378122]}},{"type":"Feature","properties":{"id":"crescent-beach-ri-united-states","name":"Crescent Beach, RI, United States","is_tbd":false},"geometry":{"type":"Point","coordinates":[-71.59367589228813,41.191957690249666]}},{"type":"Feature","properties":{"id":"kwa-ibo-nigeria","name":"Kwa Ibo, Nigeria","is_tbd":false},"geometry":{"type":"Point","coordinates":[7.997434630881941,4.543803638521354]}},{"type":"Feature","properties":{"id":"bonny-nigeria","name":"Bonny, Nigeria","is_tbd":false},"geometry":{"type":"Point","coordinates":[7.178428863416286,4.4293240736082]}},{"type":"Feature","properties":{"id":"nybro-sweden","name":"Nybro, Sweden","is_tbd":false},"geometry":{"type":"Point","coordinates":[15.908684989787758,56.7438002945014]}},{"type":"Feature","properties":{"id":"klaipeda-lithuania","name":"Klaipeda, Lithuania","is_tbd":false},"geometry":{"type":"Point","coordinates":[21.149989870548865,55.695723984038096]}},{"type":"Feature","properties":{"id":"songkhla-thailand","name":"Songkhla, Thailand","is_tbd":false},"geometry":{"type":"Point","coordinates":[100.59695121370757,7.078571549462794]}},{"type":"Feature","properties":{"id":"shima-japan","name":"Shima, Japan","is_tbd":false},"geometry":{"type":"Point","coordinates":[136.87429367855978,34.336891053049214]}},{"type":"Feature","properties":{"id":"fangshan-taiwan","name":"Fangshan, Taiwan","is_tbd":false},"geometry":{"type":"Point","coordinates":[120.66214696027154,22.24920209060255]}},{"type":"Feature","properties":{"id":"lingang-china","name":"Lingang, China","is_tbd":false},"geometry":{"type":"Point","coordinates":[121.89610604706192,30.935672217827715]}},{"type":"Feature","properties":{"id":"baie-du-tombeau-mauritius","name":"Baie du Tombeau, Mauritius","is_tbd":false},"geometry":{"type":"Point","coordinates":[57.495126451327195,-20.12211965245305]}},{"type":"Feature","properties":{"id":"le-port-runion","name":"Le Port, Réunion","is_tbd":false},"geometry":{"type":"Point","coordinates":[55.30328230092485,-20.944389515009306]}},{"type":"Feature","properties":{"id":"fort-dauphin-madagascar","name":"Fort Dauphin, Madagascar","is_tbd":false},"geometry":{"type":"Point","coordinates":[46.985375573694,-25.02253245968302]}},{"type":"Feature","properties":{"id":"candi-kusuma-indonesia","name":"Candi Kusuma, Indonesia","is_tbd":false},"geometry":{"type":"Point","coordinates":[114.5272441739173,-8.294580838185851]}},{"type":"Feature","properties":{"id":"muncar-indonesia","name":"Muncar, Indonesia","is_tbd":false},"geometry":{"type":"Point","coordinates":[114.31037421036282,-8.44801858574499]}},{"type":"Feature","properties":{"id":"banyu-urip-indonesia","name":"Banyu Urip, Indonesia","is_tbd":false},"geometry":{"type":"Point","coordinates":[112.71968042869284,-7.271904005470191]}},{"type":"Feature","properties":{"id":"kendal-indonesia","name":"Kendal, Indonesia","is_tbd":false},"geometry":{"type":"Point","coordinates":[110.18790325087318,-7.026549032389653]}},{"type":"Feature","properties":{"id":"cirebon-indonesia","name":"Cirebon, Indonesia","is_tbd":false},"geometry":{"type":"Point","coordinates":[108.56666518530787,-6.716666684588034]}},{"type":"Feature","properties":{"id":"takapuna-new-zealand","name":"Takapuna, New Zealand","is_tbd":false},"geometry":{"type":"Point","coordinates":[174.76792069217336,-36.787834026121004]}},{"type":"Feature","properties":{"id":"los-angeles-ca-united-states","name":"Los Angeles, CA, United States","is_tbd":false},"geometry":{"type":"Point","coordinates":[-118.24533743138608,34.053485007566735]}},{"type":"Feature","properties":{"id":"kiritimati-kiribati","name":"Kiritimati, Kiribati","is_tbd":false},"geometry":{"type":"Point","coordinates":[-157.4278124207352,1.872139418082043]}},{"type":"Feature","properties":{"id":"savusavu-fiji","name":"Savusavu, Fiji","is_tbd":false},"geometry":{"type":"Point","coordinates":[179.34975304523132,-16.808013518080912]}},{"type":"Feature","properties":{"id":"alexandria-nsw-australia","name":"Alexandria, NSW, Australia","is_tbd":false},"geometry":{"type":"Point","coordinates":[151.19620853634152,-33.91367353877658]}},{"type":"Feature","properties":{"id":"blaabjerg-denmark","name":"Blaabjerg, Denmark","is_tbd":false},"geometry":{"type":"Point","coordinates":[8.329194484059428,55.75167411423385]}},{"type":"Feature","properties":{"id":"lecanvey-ireland","name":"Lecanvey, Ireland","is_tbd":false},"geometry":{"type":"Point","coordinates":[-9.6965048231894,53.77082456067055]}},{"type":"Feature","properties":{"id":"medan-indonesia","name":"Medan, Indonesia","is_tbd":false},"geometry":{"type":"Point","coordinates":[98.67606376706598,3.752137998988957]}},{"type":"Feature","properties":{"id":"panipahan-indonesia","name":"Panipahan, Indonesia","is_tbd":false},"geometry":{"type":"Point","coordinates":[100.31331490213395,2.452351467017422]}},{"type":"Feature","properties":{"id":"brookvale-nsw-australia","name":"Brookvale, NSW, Australia","is_tbd":false},"geometry":{"type":"Point","coordinates":[151.2739905089301,-33.76115742340576]}},{"type":"Feature","properties":{"id":"piti-gu-united-states","name":"Piti, GU, United States","is_tbd":false},"geometry":{"type":"Point","coordinates":[144.69474214461226,13.464655237903827]}},{"type":"Feature","properties":{"id":"pangai-tonga","name":"Pangai, Tonga","is_tbd":false},"geometry":{"type":"Point","coordinates":[-174.35026124305725,-19.811427853180504]}},{"type":"Feature","properties":{"id":"neiafu-tonga","name":"Neiafu, Tonga","is_tbd":false},"geometry":{"type":"Point","coordinates":[-173.9836850536669,-18.647685111025964]}},{"type":"Feature","properties":{"id":"nukualofa-tonga","name":"Nuku'alofa, Tonga","is_tbd":false},"geometry":{"type":"Point","coordinates":[-175.20003205902455,-21.133285523298355]}},{"type":"Feature","properties":{"id":"kekaha-hi-united-states","name":"Kekaha, HI, United States","is_tbd":false},"geometry":{"type":"Point","coordinates":[-159.72420070177043,21.970305176244892]}},{"type":"Feature","properties":{"id":"kawaihae-hi-united-states","name":"Kawaihae, HI, United States","is_tbd":false},"geometry":{"type":"Point","coordinates":[-155.83123627078382,20.040296565242755]}},{"type":"Feature","properties":{"id":"makaha-hi-united-states","name":"Makaha, HI, United States","is_tbd":false},"geometry":{"type":"Point","coordinates":[-158.22064785761836,21.463431186888243]}},{"type":"Feature","properties":{"id":"makena-hi-united-states","name":"Makena, HI, United States","is_tbd":false},"geometry":{"type":"Point","coordinates":[-156.43999896208933,20.66359808291449]}},{"type":"Feature","properties":{"id":"lahaina-hi-united-states","name":"Lahaina, HI, United States","is_tbd":false},"geometry":{"type":"Point","coordinates":[-156.6844995213046,20.900903808232215]}},{"type":"Feature","properties":{"id":"kaunakakai-hi-united-states","name":"Kaunakakai, HI, United States","is_tbd":false},"geometry":{"type":"Point","coordinates":[-157.0238883189645,21.093332873862835]}},{"type":"Feature","properties":{"id":"hawaii-kai-hi-united-states","name":"Hawaii Kai, HI, United States","is_tbd":false},"geometry":{"type":"Point","coordinates":[-157.6688997638878,21.271999685978955]}},{"type":"Feature","properties":{"id":"rst-norway","name":"Røst, Norway","is_tbd":false},"geometry":{"type":"Point","coordinates":[12.070117249965506,67.50256025183077]}},{"type":"Feature","properties":{"id":"golden-bay-malta","name":"Golden Bay, Malta","is_tbd":false},"geometry":{"type":"Point","coordinates":[14.344455230051636,35.938693357433294]}},{"type":"Feature","properties":{"id":"mgarr-ix-xini-malta","name":"Mgarr ix-Xini, Malta","is_tbd":false},"geometry":{"type":"Point","coordinates":[14.271322957639853,36.02044571205079]}},{"type":"Feature","properties":{"id":"grand-baie-rodrigues-mauritius","name":"Grand Baie (Rodrigues), Mauritius","is_tbd":false},"geometry":{"type":"Point","coordinates":[63.44823384600929,-19.674345590458188]}},{"type":"Feature","properties":{"id":"hao-french-polynesia","name":"Hao, French Polynesia","is_tbd":false},"geometry":{"type":"Point","coordinates":[-140.90808894739678,-18.215762168246016]}},{"type":"Feature","properties":{"id":"manado-indonesia","name":"Manado, Indonesia","is_tbd":false},"geometry":{"type":"Point","coordinates":[124.83960982123122,1.490831387793719]}},{"type":"Feature","properties":{"id":"ondong-siau-indonesia","name":"Ondong Siau, Indonesia","is_tbd":false},"geometry":{"type":"Point","coordinates":[125.37295905277645,2.754597622785298]}},{"type":"Feature","properties":{"id":"tahuna-indonesia","name":"Tahuna, Indonesia","is_tbd":false},"geometry":{"type":"Point","coordinates":[125.485507801171,3.611114813225043]}},{"type":"Feature","properties":{"id":"melonguane-indonesia","name":"Melonguane, Indonesia","is_tbd":false},"geometry":{"type":"Point","coordinates":[126.71726962389127,4.042997369771399]}},{"type":"Feature","properties":{"id":"morotai-indonesia","name":"Morotai, Indonesia","is_tbd":false},"geometry":{"type":"Point","coordinates":[128.40081335312786,2.365656185992066]}},{"type":"Feature","properties":{"id":"tobelo-indonesia","name":"Tobelo, Indonesia","is_tbd":false},"geometry":{"type":"Point","coordinates":[127.96785467546474,1.71458385132857]}},{"type":"Feature","properties":{"id":"terante-indonesia","name":"Terante, Indonesia","is_tbd":false},"geometry":{"type":"Point","coordinates":[127.36133655044105,0.795808528724592]}},{"type":"Feature","properties":{"id":"sofifi-indonesia","name":"Sofifi, Indonesia","is_tbd":false},"geometry":{"type":"Point","coordinates":[127.56143406494019,0.734974159349719]}},{"type":"Feature","properties":{"id":"tidore-indonesia","name":"Tidore, Indonesia","is_tbd":false},"geometry":{"type":"Point","coordinates":[127.4040855435949,0.67400469339924]}},{"type":"Feature","properties":{"id":"luwuk-indonesia","name":"Luwuk, Indonesia","is_tbd":false},"geometry":{"type":"Point","coordinates":[122.79278509934622,-0.938827229844463]}},{"type":"Feature","properties":{"id":"salakan-indonesia","name":"Salakan, Indonesia","is_tbd":false},"geometry":{"type":"Point","coordinates":[123.34019682092921,-1.301013030053809]}},{"type":"Feature","properties":{"id":"bangga-indonesia","name":"Bangga, Indonesia","is_tbd":false},"geometry":{"type":"Point","coordinates":[123.52753410043263,-1.600278223931014]}},{"type":"Feature","properties":{"id":"taliabu-indonesia","name":"Taliabu, Indonesia","is_tbd":false},"geometry":{"type":"Point","coordinates":[124.7740581098557,-1.826840253714835]}},{"type":"Feature","properties":{"id":"sanana-indonesia","name":"Sanana, Indonesia","is_tbd":false},"geometry":{"type":"Point","coordinates":[125.93699673914423,-2.201449043927482]}},{"type":"Feature","properties":{"id":"kendari-indonesia","name":"Kendari, Indonesia","is_tbd":false},"geometry":{"type":"Point","coordinates":[122.5129757272529,-3.998447236538993]}},{"type":"Feature","properties":{"id":"wawonii-indonesia","name":"Wawonii, Indonesia","is_tbd":false},"geometry":{"type":"Point","coordinates":[123.12388838041389,-4.136148734803839]}},{"type":"Feature","properties":{"id":"raha-indonesia","name":"Raha, Indonesia","is_tbd":false},"geometry":{"type":"Point","coordinates":[122.72108104857838,-4.8323825296047]}},{"type":"Feature","properties":{"id":"buranga-indonesia","name":"Buranga, Indonesia","is_tbd":false},"geometry":{"type":"Point","coordinates":[122.85611021090855,-4.792266637754494]}},{"type":"Feature","properties":{"id":"lakudo-indonesia","name":"Lakudo, Indonesia","is_tbd":false},"geometry":{"type":"Point","coordinates":[122.55989952213676,-5.389117652388677]}},{"type":"Feature","properties":{"id":"baubau-indonesia","name":"Baubau, Indonesia","is_tbd":false},"geometry":{"type":"Point","coordinates":[122.59688680062172,-5.507063767817556]}},{"type":"Feature","properties":{"id":"ijmuiden-netherlands","name":"Ijmuiden, Netherlands","is_tbd":false},"geometry":{"type":"Point","coordinates":[4.613685008225445,52.458518261509965]}},{"type":"Feature","properties":{"id":"takaroa-french-polynesia","name":"Takaroa, French Polynesia","is_tbd":false},"geometry":{"type":"Point","coordinates":[-144.9722077085387,-14.44976861091078]}},{"type":"Feature","properties":{"id":"manihi-french-polynesia","name":"Manihi, French Polynesia","is_tbd":false},"geometry":{"type":"Point","coordinates":[-145.9581445100918,-14.402893905978203]}},{"type":"Feature","properties":{"id":"rangiroa-french-polynesia","name":"Rangiroa, French Polynesia","is_tbd":false},"geometry":{"type":"Point","coordinates":[-147.6513073731395,-15.116218466215656]}},{"type":"Feature","properties":{"id":"arutua-french-polynesia","name":"Arutua, French Polynesia","is_tbd":false},"geometry":{"type":"Point","coordinates":[-146.78615295672597,-15.289899868102054]}},{"type":"Feature","properties":{"id":"kaukura-french-polynesia","name":"Kaukura, French Polynesia","is_tbd":false},"geometry":{"type":"Point","coordinates":[-146.67384224527237,-15.741389321160767]}},{"type":"Feature","properties":{"id":"fakarava-french-polynesia","name":"Fakarava, French Polynesia","is_tbd":false},"geometry":{"type":"Point","coordinates":[-145.62456320343523,-16.31031326521483]}},{"type":"Feature","properties":{"id":"makemo-french-polynesia","name":"Makemo, French Polynesia","is_tbd":false},"geometry":{"type":"Point","coordinates":[-143.86719140149893,-16.539560977104884]}},{"type":"Feature","properties":{"id":"hitiaa-french-polynesia","name":"Hitia'a, French Polynesia","is_tbd":false},"geometry":{"type":"Point","coordinates":[-149.30812077463256,-17.723318964509332]}},{"type":"Feature","properties":{"id":"hiva-oa-french-polynesia","name":"Hiva Oa, French Polynesia","is_tbd":false},"geometry":{"type":"Point","coordinates":[-139.02112549855994,-9.754675849911337]}},{"type":"Feature","properties":{"id":"nuku-hiva-french-polynesia","name":"Nuku Hiva, French Polynesia","is_tbd":false},"geometry":{"type":"Point","coordinates":[-140.14209638414115,-8.860487903690284]}},{"type":"Feature","properties":{"id":"suro-guinea-bissau","name":"Suro, Guinea-Bissau","is_tbd":false},"geometry":{"type":"Point","coordinates":[-15.791145687980077,11.774131923775144]}},{"type":"Feature","properties":{"id":"duynefontein-south-africa","name":"Duynefontein, South Africa","is_tbd":false},"geometry":{"type":"Point","coordinates":[18.449914853507863,-33.69332250414598]}},{"type":"Feature","properties":{"id":"tuasivi-samoa","name":"Tuasivi, Samoa","is_tbd":false},"geometry":{"type":"Point","coordinates":[-172.17816102572922,-13.670594022635981]}},{"type":"Feature","properties":{"id":"punta-arenas-chile","name":"Punta Arenas, Chile","is_tbd":false},"geometry":{"type":"Point","coordinates":[-70.93333257585444,-53.16665547850144]}},{"type":"Feature","properties":{"id":"puerto-williams-chile","name":"Puerto Williams, Chile","is_tbd":false},"geometry":{"type":"Point","coordinates":[-67.60586142738435,-54.93520059743523]}},{"type":"Feature","properties":{"id":"tortel-chile","name":"Tortel, Chile","is_tbd":false},"geometry":{"type":"Point","coordinates":[-73.53688749922674,-47.801214664599826]}},{"type":"Feature","properties":{"id":"gwadar-pakistan","name":"Gwadar, Pakistan","is_tbd":false},"geometry":{"type":"Point","coordinates":[62.32496971736134,25.132264042220413]}},{"type":"Feature","properties":{"id":"westbury-ny-united-states","name":"Westbury, NY, United States","is_tbd":false},"geometry":{"type":"Point","coordinates":[-73.58682634862102,40.75710357176044]}},{"type":"Feature","properties":{"id":"buffalo-ny-united-states","name":"Buffalo, NY, United States","is_tbd":false},"geometry":{"type":"Point","coordinates":[-78.87846124712082,42.88543648440421]}},{"type":"Feature","properties":{"id":"toronto-on-canada","name":"Toronto, ON, Canada","is_tbd":false},"geometry":{"type":"Point","coordinates":[-79.38531972935802,43.64855718648988]}},{"type":"Feature","properties":{"id":"punta-salina-pr-united-states","name":"Punta Salina, PR, United States","is_tbd":false},"geometry":{"type":"Point","coordinates":[-66.18575110124964,18.472993987729552]}},{"type":"Feature","properties":{"id":"dania-beach-fl-united-states","name":"Dania Beach, FL, United States","is_tbd":false},"geometry":{"type":"Point","coordinates":[-80.14394128131613,26.05231628642727]}},{"type":"Feature","properties":{"id":"guantanamo-bay-cuba","name":"Guantanamo Bay, Cuba","is_tbd":false},"geometry":{"type":"Point","coordinates":[-75.15816600469181,19.939616197539863]}},{"type":"Feature","properties":{"id":"newcastle-united-kingdom","name":"Newcastle, United Kingdom","is_tbd":false},"geometry":{"type":"Point","coordinates":[-1.617778331330243,54.978249214505695]}},{"type":"Feature","properties":{"id":"endrup-denmark","name":"Endrup, Denmark","is_tbd":false},"geometry":{"type":"Point","coordinates":[8.71838899090804,55.523118197393956]}},{"type":"Feature","properties":{"id":"eemshaven-netherlands","name":"Eemshaven, Netherlands","is_tbd":false},"geometry":{"type":"Point","coordinates":[6.8160221745012,53.44280469148259]}},{"type":"Feature","properties":{"id":"schoelcher-martinique","name":"Schoelcher, Martinique","is_tbd":false},"geometry":{"type":"Point","coordinates":[-61.11213835665771,14.629000145423959]}},{"type":"Feature","properties":{"id":"pegwell-barbados","name":"Pegwell, Barbados","is_tbd":false},