{"name":"Greenland","cables":[{"id":"greenland-connect-north","name":"Greenland Connect North","cable_id":1897},{"id":"greenland-connect","name":"Greenland Connect","cable_id":1569}],"landing_points":[{"id":"sisimiut-greenland","name":"Sisimiut, Greenland","landing_point_id":16720},{"id":"maniitsoq-greenland","name":"Maniitsoq, Greenland","landing_point_id":16719},{"id":"aasiaat-greenland","name":"Aasiaat, Greenland","landing_point_id":16718},{"id":"nuuk-greenland","name":"Nuuk, Greenland","landing_point_id":8488},{"id":"qaqortoq-greenland","name":"Qaqortoq, Greenland","landing_point_id":8543},{"id":"milton-nl-canada","name":"Milton, NL, Canada","landing_point_id":8542},{"id":"landeyjar-iceland","name":"Landeyjar, Iceland","landing_point_id":8994}],"latlon":[{"latlon":"66.939467,-53.673386"},{"latlon":"65.407680,-52.905723"},{"latlon":"68.706972,-52.859117"},{"latlon":"64.181132,-51.729967"},{"latlon":"60.718937,-46.035391"}]}
