{"name":"Somalia","cables":[{"id":"peace-cable","name":"PEACE Cable","cable_id":1923},{"id":"djibouti-africa-regional-express-1-dare1","name":"Djibouti Africa Regional Express 1 (DARE1)","cable_id":1863},{"id":"gulf2africa-g2a","name":"Gulf2Africa (G2A)","cable_id":1850},{"id":"eastern-africa-submarine-system-eassy","name":"Eastern Africa Submarine System (EASSy)","cable_id":1246}],"landing_points":[{"id":"hobyo-somalia","name":"Hobyo, Somalia","landing_point_id":17305},{"id":"kismayo-somalia","name":"Kismayo, Somalia","landing_point_id":17304},{"id":"mogadishu-somalia","name":"Mogadishu, Somalia","landing_point_id":4255},{"id":"bosaso-somalia","name":"Bosaso, Somalia","landing_point_id":16373},{"id":"berbera-somalia","name":"Berbera, Somalia","landing_point_id":10093},{"id":"zafarana-egypt","name":"Zafarana, Egypt","landing_point_id":9486},{"id":"marseille-france","name":"Marseille, France","landing_point_id":3210},{"id":"gwadar-pakistan","name":"Gwadar, Pakistan","landing_point_id":16371},{"id":"djibouti-city-djibouti","name":"Djibouti City, Djibouti","landing_point_id":4177},{"id":"karachi-pakistan","name":"Karachi, Pakistan","landing_point_id":3259},{"id":"mombasa-kenya","name":"Mombasa, Kenya","landing_point_id":5896},{"id":"salalah-oman","name":"Salalah, Oman","landing_point_id":5924},{"id":"haramous-djibouti","name":"Haramous, Djibouti","landing_point_id":17968},{"id":"dar-es-salaam-tanzania","name":"Dar Es Salaam, Tanzania","landing_point_id":4182},{"id":"maputo-mozambique","name":"Maputo, Mozambique","landing_point_id":4252},{"id":"toliara-madagascar","name":"Toliara, Madagascar","landing_point_id":7398},{"id":"mtunzini-south-africa","name":"Mtunzini, South Africa","landing_point_id":5942},{"id":"port-sudan-sudan","name":"Port Sudan, Sudan","landing_point_id":5950},{"id":"moroni-comoros","name":"Moroni, Comoros","landing_point_id":4227},{"id":"abu-talat-egypt","name":"Abu Talat, Egypt","landing_point_id":9485},{"id":"victoria-seychelles","name":"Victoria, Seychelles","landing_point_id":4362}],"latlon":[{"latlon":"5.350154,48.522029"},{"latlon":"-0.362710,42.545152"},{"latlon":"2.041171,45.344150"},{"latlon":"11.275566,49.187922"},{"latlon":"2.041195,45.344174"},{"latlon":"10.435112,45.010874"}]}
