{"name":"Somalia","cables":[{"id":"peace-cable","name":"PEACE Cable","cable_id":1923},{"id":"africa-1","name":"Africa-1","cable_id":1878},{"id":"djibouti-africa-regional-express-1-dare-1","name":"Djibouti Africa Regional Express 1 (DARE 1)","cable_id":1863},{"id":"gulf2africa-g2a","name":"Gulf2Africa (G2A)","cable_id":1850},{"id":"eastern-africa-submarine-system-eassy","name":"Eastern Africa Submarine System (EASSy)","cable_id":1246}],"landing_points":[{"id":"hobyo-somalia","name":"Hobyo, Somalia","landing_point_id":17305},{"id":"kismayo-somalia","name":"Kismayo, Somalia","landing_point_id":17304},{"id":"mogadishu-somalia","name":"Mogadishu, Somalia","landing_point_id":4255},{"id":"berbera-somalia","name":"Berbera, Somalia","landing_point_id":10093},{"id":"bosaso-somalia","name":"Bosaso, Somalia","landing_point_id":16373}],"latlon":[{"latlon":"5.350154,48.522029"},{"latlon":"-0.362710,42.545152"},{"latlon":"2.041171,45.344150"},{"latlon":"10.435136,45.010898"},{"latlon":"11.275566,49.187922"},{"latlon":"10.435112,45.010874"},{"latlon":"2.041195,45.344174"}]}
