{"id":"africa-1","name":"Africa-1","cable_id":1878,"landing_points":[{"landing_point_id":14813,"id":"bejaia-algeria","name":"Bejaia, Algeria","latlon":"36.757033,5.066379","url":"#/landing-point/bejaia-algeria","is_tbd":"false"},{"landing_point_id":10093,"id":"berbera-somalia","name":"Berbera, Somalia","latlon":"10.435140,45.010907","url":"#/landing-point/berbera-somalia","is_tbd":"false"},{"landing_point_id":5958,"id":"bizerte-tunisia","name":"Bizerte, Tunisia","latlon":"37.276796,9.867340","url":"#/landing-point/bizerte-tunisia","is_tbd":"false"},{"landing_point_id":4177,"id":"djibouti-city-djibouti","name":"Djibouti City, Djibouti","latlon":"11.598732,43.145844","url":"#/landing-point/djibouti-city-djibouti","is_tbd":"false"},{"landing_point_id":19123,"id":"duba-saudi-arabia","name":"Duba, Saudi Arabia","latlon":"27.354022,35.696533","url":"#/landing-point/duba-saudi-arabia","is_tbd":"false"},{"landing_point_id":17183,"id":"kalba-united-arab-emirates","name":"Kalba, United Arab Emirates","latlon":"25.051524,56.339976","url":"#/landing-point/kalba-united-arab-emirates","is_tbd":"false"},{"landing_point_id":3259,"id":"karachi-pakistan","name":"Karachi, Pakistan","latlon":"24.889684,67.028542","url":"#/landing-point/karachi-pakistan","is_tbd":"false"},{"landing_point_id":3210,"id":"marseille-france","name":"Marseille, France","latlon":"43.293582,5.372519","url":"#/landing-point/marseille-france","is_tbd":"false"},{"landing_point_id":16693,"id":"mocha-yemen","name":"Mocha, Yemen","latlon":"13.320294,43.247334","url":"#/landing-point/mocha-yemen","is_tbd":"false"},{"landing_point_id":5896,"id":"mombasa-kenya","name":"Mombasa, Kenya","latlon":"-4.053012,39.672849","url":"#/landing-point/mombasa-kenya","is_tbd":"false"},{"landing_point_id":3177,"id":"palermo-italy","name":"Palermo, Italy","latlon":"38.121453,13.358390","url":"#/landing-point/palermo-italy","is_tbd":"false"},{"landing_point_id":9487,"id":"port-said-egypt","name":"Port Said, Egypt","latlon":"31.259289,32.284475","url":"#/landing-point/port-said-egypt","is_tbd":"false"},{"landing_point_id":5950,"id":"port-sudan-sudan","name":"Port Sudan, Sudan","latlon":"19.615552,37.219701","url":"#/landing-point/port-sudan-sudan","is_tbd":"false"},{"landing_point_id":18092,"id":"ras-ghareb-egypt","name":"Ras Ghareb, Egypt","latlon":"28.365915,33.082790","url":"#/landing-point/ras-ghareb-egypt","is_tbd":"false"}],"length":"10,000 km","rfs":"2023 Q4","owners":"Telecom Egypt,  Etisalat,  Pakistan Telecommunications Company Ltd.,  Mobily,  G42","url":null,"notes":null}
