{"id":"africa-1","name":"Africa-1","cable_id":1878,"landing_points":[{"landing_point_id":10093,"id":"berbera-somalia","name":"Berbera, Somalia","latlon":"10.435136,45.010898","url":"#/landing-point/berbera-somalia"},{"landing_point_id":4177,"id":"djibouti-city-djibouti","name":"Djibouti City, Djibouti","latlon":"11.594853,43.148033","url":"#/landing-point/djibouti-city-djibouti"},{"landing_point_id":17183,"id":"kalba-united-arab-emirates","name":"Kalba, United Arab Emirates","latlon":"25.051524,56.339970","url":"#/landing-point/kalba-united-arab-emirates"},{"landing_point_id":3259,"id":"karachi-pakistan","name":"Karachi, Pakistan","latlon":"24.889683,67.028539","url":"#/landing-point/karachi-pakistan"},{"landing_point_id":5901,"id":"mahajanga-madagascar","name":"Mahajanga, Madagascar","latlon":"-15.713728,46.315512","url":"#/landing-point/mahajanga-madagascar"},{"landing_point_id":3210,"id":"marseille-france","name":"Marseille, France","latlon":"43.293580,5.372489","url":"#/landing-point/marseille-france"},{"landing_point_id":4255,"id":"mogadishu-somalia","name":"Mogadishu, Somalia","latlon":"2.041171,45.344150","url":"#/landing-point/mogadishu-somalia"},{"landing_point_id":5896,"id":"mombasa-kenya","name":"Mombasa, Kenya","latlon":"-4.053016,39.672839","url":"#/landing-point/mombasa-kenya"},{"landing_point_id":5942,"id":"mtunzini-south-africa","name":"Mtunzini, South Africa","latlon":"-28.950440,31.757853","url":"#/landing-point/mtunzini-south-africa"},{"landing_point_id":5950,"id":"port-sudan-sudan","name":"Port Sudan, Sudan","latlon":"19.615552,37.219691","url":"#/landing-point/port-sudan-sudan"},{"landing_point_id":8679,"id":"sidi-kerir-egypt","name":"Sidi Kerir, Egypt","latlon":"31.047639,29.672356","url":"#/landing-point/sidi-kerir-egypt"},{"landing_point_id":9269,"id":"yanbu-saudi-arabia","name":"Yanbu, Saudi Arabia","latlon":"24.070555,38.106971","url":"#/landing-point/yanbu-saudi-arabia"},{"landing_point_id":9486,"id":"zafarana-egypt","name":"Zafarana, Egypt","latlon":"29.116658,32.649893","url":"#/landing-point/zafarana-egypt"}],"length":"20,000 km","rfs":"2021 Q1","owners":"PCCW,  Saudi Telecom,  MTN,  Telecom Egypt,  Telkom South Africa,  Etisalat,  Mauritius Telecom,  Telma (Telecom Malagasy),  Pakistan Telecommunications Company Ltd.,  Zain Sudan,  Sudatel,  China Telecom,  BICS,  Al Asab Trading Company,  Airtel (Bharti)","url":null,"notes":null}
