{"id":"africa-1","name":"Africa-1","cable_id":1878,"landing_points":[{"landing_point_id":14813,"id":"bejaia-algeria","name":"Bejaia, Algeria","latlon":"36.757036,5.066374","url":"#/landing-point/bejaia-algeria"},{"landing_point_id":10093,"id":"berbera-somalia","name":"Berbera, Somalia","latlon":"10.435136,45.010898","url":"#/landing-point/berbera-somalia"},{"landing_point_id":5958,"id":"bizerte-tunisia","name":"Bizerte, Tunisia","latlon":"37.276798,9.867336","url":"#/landing-point/bizerte-tunisia"},{"landing_point_id":4177,"id":"djibouti-city-djibouti","name":"Djibouti City, Djibouti","latlon":"11.598735,43.145835","url":"#/landing-point/djibouti-city-djibouti"},{"landing_point_id":19123,"id":"duba-saudi-arabia","name":"Duba, Saudi Arabia","latlon":"27.354025,35.696523","url":"#/landing-point/duba-saudi-arabia"},{"landing_point_id":17183,"id":"kalba-united-arab-emirates","name":"Kalba, United Arab Emirates","latlon":"25.051524,56.339970","url":"#/landing-point/kalba-united-arab-emirates"},{"landing_point_id":3259,"id":"karachi-pakistan","name":"Karachi, Pakistan","latlon":"24.889683,67.028539","url":"#/landing-point/karachi-pakistan"},{"landing_point_id":3210,"id":"marseille-france","name":"Marseille, France","latlon":"43.293580,5.372514","url":"#/landing-point/marseille-france"},{"landing_point_id":16693,"id":"mocha-yemen","name":"Mocha, Yemen","latlon":"13.320291,43.247325","url":"#/landing-point/mocha-yemen"},{"landing_point_id":5896,"id":"mombasa-kenya","name":"Mombasa, Kenya","latlon":"-4.053016,39.672839","url":"#/landing-point/mombasa-kenya"},{"landing_point_id":3177,"id":"palermo-italy","name":"Palermo, Italy","latlon":"38.121451,13.358386","url":"#/landing-point/palermo-italy"},{"landing_point_id":9487,"id":"port-said-egypt","name":"Port Said, Egypt","latlon":"31.259284,32.284464","url":"#/landing-point/port-said-egypt"},{"landing_point_id":5950,"id":"port-sudan-sudan","name":"Port Sudan, Sudan","latlon":"19.615552,37.219691","url":"#/landing-point/port-sudan-sudan"},{"landing_point_id":18092,"id":"ras-ghareb-egypt","name":"Ras Ghareb, Egypt","latlon":"28.365914,33.082779","url":"#/landing-point/ras-ghareb-egypt"}],"length":"10,000 km","rfs":"2023 Q4","owners":"Telecom Egypt,  Etisalat,  Pakistan Telecommunications Company Ltd.,  Mobily,  G42","url":null,"notes":null}
