{"id":"aqualink","name":"Aqualink","cable_id":1487,"landing_points":[{"landing_point_id":3319,"id":"auckland-new-zealand","name":"Auckland, New Zealand","latlon":"-36.884414,174.770458","url":"#/landing-point/auckland-new-zealand","is_tbd":"false"},{"landing_point_id":7855,"id":"canterbury-new-zealand","name":"Canterbury, New Zealand","latlon":"-43.494186,171.707374","url":"#/landing-point/canterbury-new-zealand","is_tbd":"false"},{"landing_point_id":7853,"id":"manawatu-wanganui-new-zealand","name":"Manawatu-Wanganui, New Zealand","latlon":"-39.625442,175.618212","url":"#/landing-point/manawatu-wanganui-new-zealand","is_tbd":"false"},{"landing_point_id":7854,"id":"marlborough-new-zealand","name":"Marlborough, New Zealand","latlon":"-41.527246,173.580713","url":"#/landing-point/marlborough-new-zealand","is_tbd":"false"},{"landing_point_id":7852,"id":"taranaki-new-zealand","name":"Taranaki, New Zealand","latlon":"-39.287855,174.371533","url":"#/landing-point/taranaki-new-zealand","is_tbd":"false"},{"landing_point_id":7851,"id":"waikato-new-zealand","name":"Waikato, New Zealand","latlon":"-37.915898,175.534911","url":"#/landing-point/waikato-new-zealand","is_tbd":"false"},{"landing_point_id":4052,"id":"wellington-new-zealand","name":"Wellington, New Zealand","latlon":"-41.280546,174.767138","url":"#/landing-point/wellington-new-zealand","is_tbd":"false"}],"length":"n.a.","rfs":"2001 December","owners":"Telstra","url":null,"notes":null}
