{"id":"arcos","name":"ARCOS","cable_id":1078,"landing_points":[{"landing_point_id":5791,"id":"belize-city-belize","name":"Belize City, Belize","latlon":"17.495547,-88.181614","url":"#/landing-point/belize-city-belize","is_tbd":"false"},{"landing_point_id":5920,"id":"bluefields-nicaragua","name":"Bluefields, Nicaragua","latlon":"11.991778,-83.771461","url":"#/landing-point/bluefields-nicaragua","is_tbd":"false"},{"landing_point_id":3842,"id":"cancn-mexico","name":"Cancún, Mexico","latlon":"21.095725,-86.767552","url":"#/landing-point/cancn-mexico","is_tbd":"false"},{"landing_point_id":5693,"id":"cartagena-colombia","name":"Cartagena, Colombia","latlon":"10.386695,-75.505683","url":"#/landing-point/cartagena-colombia","is_tbd":"false"},{"landing_point_id":5784,"id":"cat-island-bahamas","name":"Cat Island, Bahamas","latlon":"24.403329,-75.525898","url":"#/landing-point/cat-island-bahamas","is_tbd":"false"},{"landing_point_id":5782,"id":"crooked-island-bahamas","name":"Crooked Island, Bahamas","latlon":"22.629712,-74.194990","url":"#/landing-point/crooked-island-bahamas","is_tbd":"false"},{"landing_point_id":5773,"id":"isla-verde-pr-united-states","name":"Isla Verde, PR, United States","latlon":"18.441650,-66.016871","url":"#/landing-point/isla-verde-pr-united-states","is_tbd":"false"},{"landing_point_id":5928,"id":"maria-chiquita-panama","name":"Maria Chiquita, Panama","latlon":"9.437336,-79.753544","url":"#/landing-point/maria-chiquita-panama","is_tbd":"false"},{"landing_point_id":4230,"id":"nassau-bahamas","name":"Nassau, Bahamas","latlon":"25.067038,-77.340252","url":"#/landing-point/nassau-bahamas","is_tbd":"false"},{"landing_point_id":5772,"id":"north-miami-beach-fl-united-states","name":"North Miami Beach, FL, United States","latlon":"25.932943,-80.162381","url":"#/landing-point/north-miami-beach-fl-united-states","is_tbd":"false"},{"landing_point_id":4258,"id":"providenciales-turks-and-caicos-islands","name":"Providenciales, Turks and Caicos Islands","latlon":"21.851092,-72.120236","url":"#/landing-point/providenciales-turks-and-caicos-islands","is_tbd":"false"},{"landing_point_id":5848,"id":"puerto-barrios-guatemala","name":"Puerto Barrios, Guatemala","latlon":"15.727144,-88.597238","url":"#/landing-point/puerto-barrios-guatemala","is_tbd":"false"},{"landing_point_id":5921,"id":"puerto-cabezas-nicaragua","name":"Puerto Cabezas, Nicaragua","latlon":"14.021605,-83.393922","url":"#/landing-point/puerto-cabezas-nicaragua","is_tbd":"false"},{"landing_point_id":5851,"id":"puerto-cortes-honduras","name":"Puerto Cortes, Honduras","latlon":"15.844798,-87.946067","url":"#/landing-point/puerto-cortes-honduras","is_tbd":"false"},{"landing_point_id":5692,"id":"puerto-lempira-honduras","name":"Puerto Lempira, Honduras","latlon":"15.261221,-83.776759","url":"#/landing-point/puerto-lempira-honduras","is_tbd":"false"},{"landing_point_id":5810,"id":"puerto-limon-costa-rica","name":"Puerto Limon, Costa Rica","latlon":"9.988606,-83.037672","url":"#/landing-point/puerto-limon-costa-rica","is_tbd":"false"},{"landing_point_id":5823,"id":"puerto-plata-dominican-republic","name":"Puerto Plata, Dominican Republic","latlon":"19.799344,-70.691233","url":"#/landing-point/puerto-plata-dominican-republic","is_tbd":"false"},{"landing_point_id":5694,"id":"punta-cana-dominican-republic","name":"Punta Cana, Dominican Republic","latlon":"18.621280,-68.438256","url":"#/landing-point/punta-cana-dominican-republic","is_tbd":"false"},{"landing_point_id":5965,"id":"punto-fijo-venezuela","name":"Punto Fijo, Venezuela","latlon":"11.708602,-70.204368","url":"#/landing-point/punto-fijo-venezuela","is_tbd":"false"},{"landing_point_id":5807,"id":"riohacha-colombia","name":"Riohacha, Colombia","latlon":"11.482909,-72.952706","url":"#/landing-point/riohacha-colombia","is_tbd":"false"},{"landing_point_id":5850,"id":"trujillo-honduras","name":"Trujillo, Honduras","latlon":"15.915151,-85.954760","url":"#/landing-point/trujillo-honduras","is_tbd":"false"},{"landing_point_id":5908,"id":"tulum-mexico","name":"Tulum, Mexico","latlon":"20.212553,-87.463597","url":"#/landing-point/tulum-mexico","is_tbd":"false"},{"landing_point_id":10729,"id":"willemstad-curaao","name":"Willemstad, Curaçao","latlon":"12.095319,-68.896605","url":"#/landing-point/willemstad-curaao","is_tbd":"false"}],"length":"8,600 km","rfs":"2001 December","owners":"C&W Networks,  CANTV,  Codetel,  Hondutel,  Belize Telemedia,  Enitel,  AT&T,  Alestra,  Verizon,  RACSA,  United Telecommunication Services (UTS),  Telecarrier,  Tricom USA,  Telecomunicaciones Ultramarinas de Puerto Rico,  Internexa,  Orbinet Overseas,  Telepuerto San Isidro,  Bahamas Telecommunications Company,  Instituto Costarricense de Electricidad,  Orbitel","url":"http://www.cwnetworks.com/","notes":null}
