{"id":"asia-submarine-cable-express-asecahaya-malaysia","name":"Asia Submarine-cable Express (ASE)/Cahaya Malaysia","cable_id":1679,"landing_points":[{"landing_point_id":5937,"id":"changi-south-singapore","name":"Changi South, Singapore","latlon":"1.389045,103.987012","url":"#/landing-point/changi-south-singapore","is_tbd":"false"},{"landing_point_id":10355,"id":"daet-philippines","name":"Daet, Philippines","latlon":"14.116616,122.949889","url":"#/landing-point/daet-philippines","is_tbd":"false"},{"landing_point_id":17508,"id":"komesu-japan","name":"Komesu, Japan","latlon":"26.087759,127.700795","url":"#/landing-point/komesu-japan","is_tbd":"false"},{"landing_point_id":5887,"id":"maruyama-japan","name":"Maruyama, Japan","latlon":"35.037519,139.816967","url":"#/landing-point/maruyama-japan","is_tbd":"false"},{"landing_point_id":5902,"id":"mersing-malaysia","name":"Mersing, Malaysia","latlon":"2.295512,103.849903","url":"#/landing-point/mersing-malaysia","is_tbd":"false"},{"landing_point_id":5857,"id":"tseung-kwan-o-china","name":"Tseung Kwan O, China","latlon":"22.318296,114.258685","url":"#/landing-point/tseung-kwan-o-china","is_tbd":"false"}],"length":"8,148 km","rfs":"2012 August","owners":"NTT,  PLDT,  Telekom Malaysia,  Starhub","url":"http://www.ase-na.com","notes":"Telekom Malaysia owns two fiber pairs, which it refers to as the Cahaya Malaysia system. NTT, PLDT, and Starhub jointly own the other four fiber pairs."}
