{"id":"atlantis-2","name":"Atlantis-2","cable_id":1045,"landing_points":[{"landing_point_id":14331,"id":"carcavelos-portugal","name":"Carcavelos, Portugal","latlon":"38.690163,-9.331560","url":"#/landing-point/carcavelos-portugal","is_tbd":"false"},{"landing_point_id":5944,"id":"conil-spain","name":"Conil, Spain","latlon":"36.276563,-6.087226","url":"#/landing-point/conil-spain","is_tbd":"false"},{"landing_point_id":4180,"id":"dakar-senegal","name":"Dakar, Senegal","latlon":"14.686598,-17.451915","url":"#/landing-point/dakar-senegal","is_tbd":"false"},{"landing_point_id":5722,"id":"el-mdano-canary-islands-spain","name":"El Médano, Canary Islands, Spain","latlon":"28.046656,-16.538586","url":"#/landing-point/el-mdano-canary-islands-spain","is_tbd":"false"},{"landing_point_id":3347,"id":"fortaleza-brazil","name":"Fortaleza, Brazil","latlon":"-3.718834,-38.542965","url":"#/landing-point/fortaleza-brazil","is_tbd":"false"},{"landing_point_id":3330,"id":"las-toninas-argentina","name":"Las Toninas, Argentina","latlon":"-36.472530,-56.695491","url":"#/landing-point/las-toninas-argentina","is_tbd":"false"},{"landing_point_id":4257,"id":"praia-cape-verde","name":"Praia, Cape Verde","latlon":"14.923011,-23.521247","url":"#/landing-point/praia-cape-verde","is_tbd":"false"}],"length":"8,500 km","rfs":"2000 February","owners":"Embratel,  Deutsche Telekom,  Telecom Italia Sparkle,  Telecom Argentina,  Telxius,  Altice Portugal,  Orange,  Telefónica Larga Distancia de Puerto Rico,  AT&T,  BICS,  KT,  Singtel,  Tata Communications,  Verizon,  BT,  Orange Polska","url":null,"notes":null}
