{"id":"azores-fiber-optic-system-afos","name":"Azores Fiber Optic System (AFOS)","cable_id":1801,"landing_points":[{"landing_point_id":14836,"id":"angra-do-heroismo-portugal","name":"Angra do Heroismo, Portugal","latlon":"38.658523,-27.215824","url":"#/landing-point/angra-do-heroismo-portugal","is_tbd":"false"},{"landing_point_id":14659,"id":"faial-portugal","name":"Faial, Portugal","latlon":"38.525100,-28.647562","url":"#/landing-point/faial-portugal","is_tbd":"false"},{"landing_point_id":14658,"id":"graciosa-portugal","name":"Graciosa, Portugal","latlon":"39.011030,-27.963480","url":"#/landing-point/graciosa-portugal","is_tbd":"false"},{"landing_point_id":5945,"id":"ponta-delgada-portugal","name":"Ponta Delgada, Portugal","latlon":"37.739217,-25.668755","url":"#/landing-point/ponta-delgada-portugal","is_tbd":"false"},{"landing_point_id":14834,"id":"sao-mateus-portugal","name":"Sao Mateus, Portugal","latlon":"38.432290,-28.461234","url":"#/landing-point/sao-mateus-portugal","is_tbd":"false"},{"landing_point_id":14833,"id":"velas-portugal","name":"Velas, Portugal","latlon":"38.683845,-28.213187","url":"#/landing-point/velas-portugal","is_tbd":"false"},{"landing_point_id":14835,"id":"vila-do-porto-portugal","name":"Vila do Porto, Portugal","latlon":"36.956764,-25.141265","url":"#/landing-point/vila-do-porto-portugal","is_tbd":"false"}],"length":"1,100 km","rfs":"1998 July","owners":"Altice Portugal","url":null,"notes":null}
