{"id":"cantat-3","name":"CANTAT-3","cable_id":1737,"landing_points":[{"landing_point_id":5818,"id":"blaabjerg-denmark","name":"Blaabjerg, Denmark","latlon":"55.751532,8.328975","url":"#/landing-point/blaabjerg-denmark","is_tbd":"false"},{"landing_point_id":10780,"id":"south-arne-denmark","name":"South Arne, Denmark","latlon":"56.078288,4.228392","url":"#/landing-point/south-arne-denmark","is_tbd":"false"},{"landing_point_id":3142,"id":"sylt-germany","name":"Sylt, Germany","latlon":"54.898506,8.383369","url":"#/landing-point/sylt-germany","is_tbd":"false"},{"landing_point_id":5724,"id":"tjornuvik-faroe-islands","name":"Tjornuvik, Faroe Islands","latlon":"62.289921,-7.147235","url":"#/landing-point/tjornuvik-faroe-islands","is_tbd":"false"},{"landing_point_id":10782,"id":"tyra-denmark","name":"Tyra, Denmark","latlon":"55.715607,4.748508","url":"#/landing-point/tyra-denmark","is_tbd":"false"},{"landing_point_id":10781,"id":"valdemar-denmark","name":"Valdemar, Denmark","latlon":"55.804072,4.564329","url":"#/landing-point/valdemar-denmark","is_tbd":"false"},{"landing_point_id":5858,"id":"vestmannaeyjar-iceland","name":"Vestmannaeyjar, Iceland","latlon":"63.437687,-20.267294","url":"#/landing-point/vestmannaeyjar-iceland","is_tbd":"false"}],"length":"2,500 km","rfs":"1994 November","owners":"Shefa","url":"http://www.shefa.fo","notes":null}
