{"id":"converge-domestic-submarine-cable-network-cdscn","name":"Converge Domestic Submarine Cable Network (CDSCN)","cable_id":2059,"landing_points":[{"landing_point_id":17588,"id":"baclayon-philippines","name":"Baclayon, Philippines","latlon":"9.622558,123.913547","url":"#/landing-point/baclayon-philippines","is_tbd":"false"},{"landing_point_id":17586,"id":"bacong-philippines","name":"Bacong, Philippines","latlon":"9.246331,123.294956","url":"#/landing-point/bacong-philippines","is_tbd":"false"},{"landing_point_id":9382,"id":"bogo-philippines","name":"Bogo, Philippines","latlon":"11.045877,124.007652","url":"#/landing-point/bogo-philippines","is_tbd":"false"},{"landing_point_id":17568,"id":"boracay-philippines","name":"Boracay, Philippines","latlon":"11.949242,121.944812","url":"#/landing-point/boracay-philippines","is_tbd":"false"},{"landing_point_id":17560,"id":"buenavista-philippines","name":"Buenavista, Philippines","latlon":"8.968922,125.420737","url":"#/landing-point/buenavista-philippines","is_tbd":"false"},{"landing_point_id":10658,"id":"cagayan-de-oro-philippines","name":"Cagayan de Oro, Philippines","latlon":"8.454228,124.631895","url":"#/landing-point/cagayan-de-oro-philippines","is_tbd":"false"},{"landing_point_id":9385,"id":"coron-philippines","name":"Coron, Philippines","latlon":"12.005056,120.200697","url":"#/landing-point/coron-philippines","is_tbd":"false"},{"landing_point_id":17565,"id":"leganes-philippines","name":"Leganes, Philippines","latlon":"10.786581,122.589441","url":"#/landing-point/leganes-philippines","is_tbd":"false"},{"landing_point_id":16047,"id":"masbate-city-philippines","name":"Masbate City, Philippines","latlon":"12.366677,123.616661","url":"#/landing-point/masbate-city-philippines","is_tbd":"false"},{"landing_point_id":17566,"id":"milagros-philippines","name":"Milagros, Philippines","latlon":"12.218125,123.509093","url":"#/landing-point/milagros-philippines","is_tbd":"false"},{"landing_point_id":16596,"id":"naga-philippines","name":"Naga, Philippines","latlon":"10.238242,123.691442","url":"#/landing-point/naga-philippines","is_tbd":"false"},{"landing_point_id":9387,"id":"ormoc-philippines","name":"Ormoc, Philippines","latlon":"11.006889,124.612779","url":"#/landing-point/ormoc-philippines","is_tbd":"false"},{"landing_point_id":16597,"id":"pasacao-philippines","name":"Pasacao, Philippines","latlon":"13.547781,122.950646","url":"#/landing-point/pasacao-philippines","is_tbd":"false"},{"landing_point_id":7840,"id":"roxas-city-philippines","name":"Roxas City, Philippines","latlon":"11.583330,122.749987","url":"#/landing-point/roxas-city-philippines","is_tbd":"false"},{"landing_point_id":17567,"id":"roxas-philippines","name":"Roxas, Philippines","latlon":"12.586435,121.527747","url":"#/landing-point/roxas-philippines","is_tbd":"false"},{"landing_point_id":17562,"id":"san-carlos-philippines","name":"San Carlos, Philippines","latlon":"10.483745,123.412877","url":"#/landing-point/san-carlos-philippines","is_tbd":"false"},{"landing_point_id":17569,"id":"san-juan-philippines","name":"San Juan, Philippines","latlon":"13.809928,121.448865","url":"#/landing-point/san-juan-philippines","is_tbd":"false"},{"landing_point_id":17563,"id":"san-remigio-philippines","name":"San Remigio, Philippines","latlon":"11.083327,123.936339","url":"#/landing-point/san-remigio-philippines","is_tbd":"false"},{"landing_point_id":17587,"id":"tagbilaran-philippines","name":"Tagbilaran, Philippines","latlon":"9.675425,123.878171","url":"#/landing-point/tagbilaran-philippines","is_tbd":"false"},{"landing_point_id":17564,"id":"talisay-philippines","name":"Talisay, Philippines","latlon":"10.739403,122.967761","url":"#/landing-point/talisay-philippines","is_tbd":"false"},{"landing_point_id":14655,"id":"taytay-philippines","name":"Taytay, Philippines","latlon":"10.819711,119.500331","url":"#/landing-point/taytay-philippines","is_tbd":"false"},{"landing_point_id":17561,"id":"toledo-philippines","name":"Toledo, Philippines","latlon":"10.376249,123.635241","url":"#/landing-point/toledo-philippines","is_tbd":"false"}],"length":"1,300 km","rfs":"2021","owners":"Converge ICT","url":"https://www.convergeict.com","notes":null}
