{"id":"fibralink","name":"Fibralink","cable_id":1361,"landing_points":[{"landing_point_id":7689,"id":"bull-bay-jamaica","name":"Bull Bay, Jamaica","latlon":"17.949677,-76.666668","url":"#/landing-point/bull-bay-jamaica","is_tbd":"false"},{"landing_point_id":14805,"id":"kaliko-haiti","name":"Kaliko, Haiti","latlon":"18.864587,-72.608712","url":"#/landing-point/kaliko-haiti","is_tbd":"false"},{"landing_point_id":7687,"id":"montego-bay-jamaica","name":"Montego Bay, Jamaica","latlon":"18.469360,-77.921379","url":"#/landing-point/montego-bay-jamaica","is_tbd":"false"},{"landing_point_id":7688,"id":"ocho-rios-jamaica","name":"Ocho Rios, Jamaica","latlon":"18.398555,-77.103191","url":"#/landing-point/ocho-rios-jamaica","is_tbd":"false"},{"landing_point_id":5823,"id":"puerto-plata-dominican-republic","name":"Puerto Plata, Dominican Republic","latlon":"19.799344,-70.691233","url":"#/landing-point/puerto-plata-dominican-republic","is_tbd":"false"}],"length":"1,000 km","rfs":"2006 March","owners":"C&W Networks","url":"http://www.cwnetworks.com/","notes":null}
