{"id":"jaka2ladema","name":"JaKa2LaDeMa","cable_id":1767,"landing_points":[{"landing_point_id":9595,"id":"bali-indonesia","name":"Bali, Indonesia","latlon":"-8.464412,115.596965","url":"#/landing-point/bali-indonesia","is_tbd":"false"},{"landing_point_id":7803,"id":"banjarmasin-indonesia","name":"Banjarmasin, Indonesia","latlon":"-3.327961,114.603997","url":"#/landing-point/banjarmasin-indonesia","is_tbd":"false"},{"landing_point_id":14611,"id":"beculuk-indonesia","name":"Beculuk, Indonesia","latlon":"-8.615634,114.097064","url":"#/landing-point/beculuk-indonesia","is_tbd":"false"},{"landing_point_id":14612,"id":"jimbaran-indonesia","name":"Jimbaran, Indonesia","latlon":"-8.784095,115.159856","url":"#/landing-point/jimbaran-indonesia","is_tbd":"false"},{"landing_point_id":14607,"id":"ketapang-indonesia","name":"Ketapang, Indonesia","latlon":"-1.859123,109.971871","url":"#/landing-point/ketapang-indonesia","is_tbd":"false"},{"landing_point_id":14613,"id":"mataram-indonesia","name":"Mataram, Indonesia","latlon":"-8.586389,116.081535","url":"#/landing-point/mataram-indonesia","is_tbd":"false"},{"landing_point_id":14608,"id":"pankalan-indonesia","name":"Pankalan, Indonesia","latlon":"-2.849667,111.752925","url":"#/landing-point/pankalan-indonesia","is_tbd":"false"},{"landing_point_id":8360,"id":"pontianak-indonesia","name":"Pontianak, Indonesia","latlon":"-0.027407,109.335641","url":"#/landing-point/pontianak-indonesia","is_tbd":"false"},{"landing_point_id":14609,"id":"sangata-indonesia","name":"Sangata, Indonesia","latlon":"0.326887,117.550968","url":"#/landing-point/sangata-indonesia","is_tbd":"false"},{"landing_point_id":14610,"id":"toweli-indonesia","name":"Toweli, Indonesia","latlon":"-1.142468,119.388369","url":"#/landing-point/toweli-indonesia","is_tbd":"false"}],"length":"1,700 km","rfs":"2010","owners":"Telkom Indonesia","url":null,"notes":null}
