{"id":"jakarta-bangka-bintan-batam-singapore-b3js","name":"Jakarta-Bangka-Bintan-Batam-Singapore (B3JS)","cable_id":1833,"landing_points":[{"landing_point_id":5862,"id":"batam-indonesia","name":"Batam, Indonesia","latlon":"1.134725,103.962501","url":"#/landing-point/batam-indonesia","is_tbd":"false"},{"landing_point_id":16015,"id":"batu-prahu-indonesia","name":"Batu Prahu, Indonesia","latlon":"-3.079925,106.547460","url":"#/landing-point/batu-prahu-indonesia","is_tbd":"false"},{"landing_point_id":19219,"id":"bintan-indonesia","name":"Bintan, Indonesia","latlon":"1.136696,104.425806","url":"#/landing-point/bintan-indonesia","is_tbd":"false"},{"landing_point_id":3012,"id":"jakarta-indonesia","name":"Jakarta, Indonesia","latlon":"-6.171890,106.827831","url":"#/landing-point/jakarta-indonesia","is_tbd":"false"},{"landing_point_id":16014,"id":"pesaren-indonesia","name":"Pesaren, Indonesia","latlon":"-1.553876,105.582714","url":"#/landing-point/pesaren-indonesia","is_tbd":"false"},{"landing_point_id":9135,"id":"tanah-merah-singapore","name":"Tanah Merah, Singapore","latlon":"1.327258,103.946583","url":"#/landing-point/tanah-merah-singapore","is_tbd":"false"}],"length":"1,031 km","rfs":"2012 November","owners":"Moratelindo","url":"http://www.moratelindo.co.id","notes":null}
