{"id":"maya-1","name":"Maya-1","cable_id":1071,"landing_points":[{"landing_point_id":3842,"id":"cancn-mexico","name":"Cancún, Mexico","latlon":"21.095725,-86.767552","url":"#/landing-point/cancn-mexico","is_tbd":"false"},{"landing_point_id":5799,"id":"half-moon-bay-cayman-islands","name":"Half Moon Bay, Cayman Islands","latlon":"19.282958,-81.166775","url":"#/landing-point/half-moon-bay-cayman-islands","is_tbd":"false"},{"landing_point_id":3650,"id":"hollywood-fl-united-states","name":"Hollywood, FL, United States","latlon":"26.010202,-80.160233","url":"#/landing-point/hollywood-fl-united-states","is_tbd":"false"},{"landing_point_id":5928,"id":"maria-chiquita-panama","name":"Maria Chiquita, Panama","latlon":"9.437336,-79.753544","url":"#/landing-point/maria-chiquita-panama","is_tbd":"false"},{"landing_point_id":5851,"id":"puerto-cortes-honduras","name":"Puerto Cortes, Honduras","latlon":"15.844798,-87.946067","url":"#/landing-point/puerto-cortes-honduras","is_tbd":"false"},{"landing_point_id":5810,"id":"puerto-limon-costa-rica","name":"Puerto Limon, Costa Rica","latlon":"9.988606,-83.037672","url":"#/landing-point/puerto-limon-costa-rica","is_tbd":"false"},{"landing_point_id":5808,"id":"tolu-colombia","name":"Tolu, Colombia","latlon":"9.496300,-75.558564","url":"#/landing-point/tolu-colombia","is_tbd":"false"}],"length":"4,400 km","rfs":"2000 October","owners":"Verizon,  AT&T,  T-Mobile,  Hondutel,  Telefonica,  Orbitel,  Telecom Italia Sparkle,  C&W Networks,  Embratel,  ETB,  Axtel,  Instituto Costarricense de Electricidad,  BICS,  Prepa Networks,  Orange,  Tricom,  RSL Telecom,  América Móvil","url":null,"notes":null}
