{"id":"palapa-ring-east","name":"Palapa Ring East","cable_id":1938,"landing_points":[{"landing_point_id":16672,"id":"agats-indonesia","name":"Agats, Indonesia","latlon":"-5.535629,138.121363","url":"#/landing-point/agats-indonesia","is_tbd":"false"},{"landing_point_id":17096,"id":"baa-indonesia","name":"Baa, Indonesia","latlon":"-10.733340,123.035265","url":"#/landing-point/baa-indonesia","is_tbd":"false"},{"landing_point_id":16681,"id":"kep-aru-indonesia","name":"Kep. Aru, Indonesia","latlon":"-6.194645,134.550174","url":"#/landing-point/kep-aru-indonesia","is_tbd":"false"},{"landing_point_id":17097,"id":"kokar-indonesia","name":"Kokar, Indonesia","latlon":"-8.158311,124.453453","url":"#/landing-point/kokar-indonesia","is_tbd":"false"},{"landing_point_id":17100,"id":"kota-mappi-indonesia","name":"Kota Mappi, Indonesia","latlon":"-7.102453,139.396509","url":"#/landing-point/kota-mappi-indonesia","is_tbd":"false"},{"landing_point_id":14653,"id":"kupang-indonesia","name":"Kupang, Indonesia","latlon":"-10.183333,123.583312","url":"#/landing-point/kupang-indonesia","is_tbd":"false"},{"landing_point_id":16630,"id":"manokwari-indonesia","name":"Manokwari, Indonesia","latlon":"-0.861469,134.062040","url":"#/landing-point/manokwari-indonesia","is_tbd":"false"},{"landing_point_id":16665,"id":"nabire-indonesia","name":"Nabire, Indonesia","latlon":"-3.372234,135.501638","url":"#/landing-point/nabire-indonesia","is_tbd":"false"},{"landing_point_id":16684,"id":"seba-indonesia","name":"Seba, Indonesia","latlon":"-10.457822,121.879895","url":"#/landing-point/seba-indonesia","is_tbd":"false"},{"landing_point_id":17098,"id":"serwaru-indonesia","name":"Serwaru, Indonesia","latlon":"-8.158118,127.691488","url":"#/landing-point/serwaru-indonesia","is_tbd":"false"},{"landing_point_id":17099,"id":"suemlaki-indonesia","name":"Suemlaki, Indonesia","latlon":"-8.052229,131.213043","url":"#/landing-point/suemlaki-indonesia","is_tbd":"false"},{"landing_point_id":16659,"id":"supiori-indonesia","name":"Supiori, Indonesia","latlon":"-0.729511,135.638528","url":"#/landing-point/supiori-indonesia","is_tbd":"false"},{"landing_point_id":17101,"id":"teluk-indonesia","name":"Teluk, Indonesia","latlon":"-2.202374,133.482131","url":"#/landing-point/teluk-indonesia","is_tbd":"false"},{"landing_point_id":16683,"id":"tiakur-indonesia","name":"Tiakur, Indonesia","latlon":"-8.150332,127.787872","url":"#/landing-point/tiakur-indonesia","is_tbd":"false"},{"landing_point_id":16575,"id":"timika-indonesia","name":"Timika, Indonesia","latlon":"-4.550311,136.889577","url":"#/landing-point/timika-indonesia","is_tbd":"false"},{"landing_point_id":16632,"id":"tual-indonesia","name":"Tual, Indonesia","latlon":"-5.626578,132.752080","url":"#/landing-point/tual-indonesia","is_tbd":"false"},{"landing_point_id":14652,"id":"waingapu-indonesia","name":"Waingapu, Indonesia","latlon":"-9.646107,120.252894","url":"#/landing-point/waingapu-indonesia","is_tbd":"false"},{"landing_point_id":16660,"id":"yapen-indonesia","name":"Yapen, Indonesia","latlon":"-1.756123,136.156985","url":"#/landing-point/yapen-indonesia","is_tbd":"false"}],"length":"6,300 km","rfs":"2019 October","owners":"Indonesian Government,  Moratelindo,  Telekom PT SmartFren","url":null,"notes":null}
