{"id":"palapa-ring-middle","name":"Palapa Ring Middle","cable_id":1940,"landing_points":[{"landing_point_id":17083,"id":"bangga-indonesia","name":"Bangga, Indonesia","latlon":"-1.600278,123.527534","url":"#/landing-point/bangga-indonesia","is_tbd":"false"},{"landing_point_id":17089,"id":"baubau-indonesia","name":"Baubau, Indonesia","latlon":"-5.507064,122.596887","url":"#/landing-point/baubau-indonesia","is_tbd":"false"},{"landing_point_id":17087,"id":"buranga-indonesia","name":"Buranga, Indonesia","latlon":"-4.792267,122.856110","url":"#/landing-point/buranga-indonesia","is_tbd":"false"},{"landing_point_id":16570,"id":"kendari-indonesia","name":"Kendari, Indonesia","latlon":"-3.998447,122.512976","url":"#/landing-point/kendari-indonesia","is_tbd":"false"},{"landing_point_id":17088,"id":"lakudo-indonesia","name":"Lakudo, Indonesia","latlon":"-5.389118,122.559900","url":"#/landing-point/lakudo-indonesia","is_tbd":"false"},{"landing_point_id":16620,"id":"luwuk-indonesia","name":"Luwuk, Indonesia","latlon":"-0.938827,122.792785","url":"#/landing-point/luwuk-indonesia","is_tbd":"false"},{"landing_point_id":15115,"id":"manado-indonesia","name":"Manado, Indonesia","latlon":"1.490831,124.839610","url":"#/landing-point/manado-indonesia","is_tbd":"false"},{"landing_point_id":17078,"id":"melonguane-indonesia","name":"Melonguane, Indonesia","latlon":"4.042997,126.717270","url":"#/landing-point/melonguane-indonesia","is_tbd":"false"},{"landing_point_id":16651,"id":"morotai-indonesia","name":"Morotai, Indonesia","latlon":"2.365656,128.400813","url":"#/landing-point/morotai-indonesia","is_tbd":"false"},{"landing_point_id":16649,"id":"ondong-siau-indonesia","name":"Ondong Siau, Indonesia","latlon":"2.754598,125.372959","url":"#/landing-point/ondong-siau-indonesia","is_tbd":"false"},{"landing_point_id":17086,"id":"raha-indonesia","name":"Raha, Indonesia","latlon":"-4.832383,122.721081","url":"#/landing-point/raha-indonesia","is_tbd":"false"},{"landing_point_id":17082,"id":"salakan-indonesia","name":"Salakan, Indonesia","latlon":"-1.301013,123.340197","url":"#/landing-point/salakan-indonesia","is_tbd":"false"},{"landing_point_id":16623,"id":"sanana-indonesia","name":"Sanana, Indonesia","latlon":"-2.201449,125.936997","url":"#/landing-point/sanana-indonesia","is_tbd":"false"},{"landing_point_id":16622,"id":"sofifi-indonesia","name":"Sofifi, Indonesia","latlon":"0.734974,127.561434","url":"#/landing-point/sofifi-indonesia","is_tbd":"false"},{"landing_point_id":16650,"id":"tahuna-indonesia","name":"Tahuna, Indonesia","latlon":"3.611115,125.485508","url":"#/landing-point/tahuna-indonesia","is_tbd":"false"},{"landing_point_id":17084,"id":"taliabu-indonesia","name":"Taliabu, Indonesia","latlon":"-1.826840,124.774058","url":"#/landing-point/taliabu-indonesia","is_tbd":"false"},{"landing_point_id":17080,"id":"terante-indonesia","name":"Terante, Indonesia","latlon":"0.795809,127.361337","url":"#/landing-point/terante-indonesia","is_tbd":"false"},{"landing_point_id":17081,"id":"tidore-indonesia","name":"Tidore, Indonesia","latlon":"0.674005,127.404086","url":"#/landing-point/tidore-indonesia","is_tbd":"false"},{"landing_point_id":17079,"id":"tobelo-indonesia","name":"Tobelo, Indonesia","latlon":"1.714584,127.967855","url":"#/landing-point/tobelo-indonesia","is_tbd":"false"},{"landing_point_id":17085,"id":"wawonii-indonesia","name":"Wawonii, Indonesia","latlon":"-4.136149,123.123888","url":"#/landing-point/wawonii-indonesia","is_tbd":"false"}],"length":"2,100 km","rfs":"2018 December","owners":"Indonesian Government","url":null,"notes":null}
