{"id":"paniolo-cable-network","name":"Paniolo Cable Network","cable_id":1948,"landing_points":[{"landing_point_id":17139,"id":"hawaii-kai-hi-united-states","name":"Hawaii Kai, HI, United States","latlon":"21.272000,-157.668900","url":"#/landing-point/hawaii-kai-hi-united-states","is_tbd":"false"},{"landing_point_id":16121,"id":"kaunakakai-hi-united-states","name":"Kaunakakai, HI, United States","latlon":"21.093333,-157.023888","url":"#/landing-point/kaunakakai-hi-united-states","is_tbd":"false"},{"landing_point_id":8973,"id":"kawaihae-hi-united-states","name":"Kawaihae, HI, United States","latlon":"20.040297,-155.831236","url":"#/landing-point/kawaihae-hi-united-states","is_tbd":"false"},{"landing_point_id":17138,"id":"kekaha-hi-united-states","name":"Kekaha, HI, United States","latlon":"21.970305,-159.724201","url":"#/landing-point/kekaha-hi-united-states","is_tbd":"false"},{"landing_point_id":17136,"id":"lahaina-hi-united-states","name":"Lahaina, HI, United States","latlon":"20.900904,-156.684500","url":"#/landing-point/lahaina-hi-united-states","is_tbd":"false"},{"landing_point_id":5760,"id":"makaha-hi-united-states","name":"Makaha, HI, United States","latlon":"21.463431,-158.220648","url":"#/landing-point/makaha-hi-united-states","is_tbd":"false"},{"landing_point_id":17135,"id":"makena-hi-united-states","name":"Makena, HI, United States","latlon":"20.663598,-156.439999","url":"#/landing-point/makena-hi-united-states","is_tbd":"false"}],"length":"576 km","rfs":"2009","owners":"Paniolo Cable Company","url":null,"notes":null}
