{"id":"peace-cable","name":"PEACE Cable","cable_id":1923,"landing_points":[{"landing_point_id":9485,"id":"abu-talat-egypt","name":"Abu Talat, Egypt","latlon":"31.071849,29.702495","url":"#/landing-point/abu-talat-egypt","is_tbd":"false"},{"landing_point_id":16373,"id":"bosaso-somalia","name":"Bosaso, Somalia","latlon":"11.275568,49.187930","url":"#/landing-point/bosaso-somalia","is_tbd":"false"},{"landing_point_id":4177,"id":"djibouti-city-djibouti","name":"Djibouti City, Djibouti","latlon":"11.594678,43.147993","url":"#/landing-point/djibouti-city-djibouti","is_tbd":"false"},{"landing_point_id":16371,"id":"gwadar-pakistan","name":"Gwadar, Pakistan","latlon":"25.132264,62.324970","url":"#/landing-point/gwadar-pakistan","is_tbd":"false"},{"landing_point_id":17305,"id":"hobyo-somalia","name":"Hobyo, Somalia","latlon":"5.350157,48.522036","url":"#/landing-point/hobyo-somalia","is_tbd":"false"},{"landing_point_id":3259,"id":"karachi-pakistan","name":"Karachi, Pakistan","latlon":"24.889684,67.028542","url":"#/landing-point/karachi-pakistan","is_tbd":"false"},{"landing_point_id":17304,"id":"kismayo-somalia","name":"Kismayo, Somalia","latlon":"-0.362712,42.545161","url":"#/landing-point/kismayo-somalia","is_tbd":"false"},{"landing_point_id":3210,"id":"marseille-france","name":"Marseille, France","latlon":"43.293582,5.372495","url":"#/landing-point/marseille-france","is_tbd":"false"},{"landing_point_id":4255,"id":"mogadishu-somalia","name":"Mogadishu, Somalia","latlon":"2.041166,45.344158","url":"#/landing-point/mogadishu-somalia","is_tbd":"false"},{"landing_point_id":5896,"id":"mombasa-kenya","name":"Mombasa, Kenya","latlon":"-4.053012,39.672849","url":"#/landing-point/mombasa-kenya","is_tbd":"false"},{"landing_point_id":4362,"id":"victoria-seychelles","name":"Victoria, Seychelles","latlon":"-4.617612,55.445054","url":"#/landing-point/victoria-seychelles","is_tbd":"false"},{"landing_point_id":5811,"id":"yeroskipos-cyprus","name":"Yeroskipos, Cyprus","latlon":"34.766411,32.466555","url":"#/landing-point/yeroskipos-cyprus","is_tbd":"false"},{"landing_point_id":9486,"id":"zafarana-egypt","name":"Zafarana, Egypt","latlon":"29.116655,32.649905","url":"#/landing-point/zafarana-egypt","is_tbd":"false"}],"length":"15,000 km","rfs":"2021 Q4","owners":"Peace Cable International Network Co. Ltd.","url":"http://www.peacecable.net","notes":null}
