{"id":"pldt-domestic-fiber-optic-network-dfon","name":"PLDT Domestic Fiber Optic Network (DFON)","cable_id":1839,"landing_points":[{"landing_point_id":16053,"id":"butuan-city-philippines","name":"Butuan City, Philippines","latlon":"8.947615,125.540610","url":"#/landing-point/butuan-city-philippines","is_tbd":"false"},{"landing_point_id":16050,"id":"cadiz-city-philippines","name":"Cadiz City, Philippines","latlon":"10.950026,123.299987","url":"#/landing-point/cadiz-city-philippines","is_tbd":"false"},{"landing_point_id":10658,"id":"cagayan-de-oro-philippines","name":"Cagayan de Oro, Philippines","latlon":"8.454228,124.631920","url":"#/landing-point/cagayan-de-oro-philippines","is_tbd":"false"},{"landing_point_id":9384,"id":"calbayog-philippines","name":"Calbayog, Philippines","latlon":"12.069906,124.600279","url":"#/landing-point/calbayog-philippines","is_tbd":"false"},{"landing_point_id":3901,"id":"cebu-philippines","name":"Cebu, Philippines","latlon":"10.310033,123.894615","url":"#/landing-point/cebu-philippines","is_tbd":"false"},{"landing_point_id":7842,"id":"dumaguete-philippines","name":"Dumaguete, Philippines","latlon":"9.295611,123.281432","url":"#/landing-point/dumaguete-philippines","is_tbd":"false"},{"landing_point_id":16048,"id":"legazpi-city-philippines","name":"Legazpi City, Philippines","latlon":"13.139089,123.743737","url":"#/landing-point/legazpi-city-philippines","is_tbd":"false"},{"landing_point_id":16047,"id":"masbate-city-philippines","name":"Masbate City, Philippines","latlon":"12.366725,123.616686","url":"#/landing-point/masbate-city-philippines","is_tbd":"false"},{"landing_point_id":9603,"id":"nasugbu-philippines","name":"Nasugbu, Philippines","latlon":"14.088187,120.623011","url":"#/landing-point/nasugbu-philippines","is_tbd":"false"},{"landing_point_id":9387,"id":"ormoc-philippines","name":"Ormoc, Philippines","latlon":"11.006889,124.612779","url":"#/landing-point/ormoc-philippines","is_tbd":"false"},{"landing_point_id":16052,"id":"ozamiz-city-philippines","name":"Ozamiz City, Philippines","latlon":"8.150029,123.849986","url":"#/landing-point/ozamiz-city-philippines","is_tbd":"false"},{"landing_point_id":16046,"id":"pinamalayan-philippines","name":"Pinamalayan, Philippines","latlon":"13.045779,121.464539","url":"#/landing-point/pinamalayan-philippines","is_tbd":"false"},{"landing_point_id":7840,"id":"roxas-city-philippines","name":"Roxas City, Philippines","latlon":"11.583306,122.749987","url":"#/landing-point/roxas-city-philippines","is_tbd":"false"}],"length":"11,100 km","rfs":"1997","owners":"PLDT","url":"http://www.pldt.com.ph","notes":null}
