{"id":"prat","name":"Prat","cable_id":1997,"landing_points":[{"landing_point_id":10710,"id":"antofagasta-chile","name":"Antofagasta, Chile","latlon":"-23.650000,-70.400000","url":"#/landing-point/antofagasta-chile","is_tbd":"false"},{"landing_point_id":5800,"id":"arica-chile","name":"Arica, Chile","latlon":"-18.473381,-70.306750","url":"#/landing-point/arica-chile","is_tbd":"false"},{"landing_point_id":17419,"id":"caldera-chile","name":"Caldera, Chile","latlon":"-27.061992,-70.812357","url":"#/landing-point/caldera-chile","is_tbd":"false"},{"landing_point_id":17421,"id":"constitucin-chile","name":"Constitución, Chile","latlon":"-35.318371,-72.416068","url":"#/landing-point/constitucin-chile","is_tbd":"false"},{"landing_point_id":10709,"id":"iquique-chile","name":"Iquique, Chile","latlon":"-20.216700,-70.142223","url":"#/landing-point/iquique-chile","is_tbd":"false"},{"landing_point_id":10712,"id":"la-serena-chile","name":"La Serena, Chile","latlon":"-29.906301,-71.250204","url":"#/landing-point/la-serena-chile","is_tbd":"false"},{"landing_point_id":9427,"id":"puerto-montt-chile","name":"Puerto Montt, Chile","latlon":"-41.460379,-72.953419","url":"#/landing-point/puerto-montt-chile","is_tbd":"false"},{"landing_point_id":17418,"id":"puerto-saavedra-chile","name":"Puerto Saavedra, Chile","latlon":"-38.787130,-73.396770","url":"#/landing-point/puerto-saavedra-chile","is_tbd":"false"},{"landing_point_id":10916,"id":"san-antonio-chile","name":"San Antonio, Chile","latlon":"-33.583647,-71.613065","url":"#/landing-point/san-antonio-chile","is_tbd":"false"},{"landing_point_id":17300,"id":"talcahuano-chile","name":"Talcahuano, Chile","latlon":"-36.724785,-73.116982","url":"#/landing-point/talcahuano-chile","is_tbd":"false"},{"landing_point_id":17417,"id":"tocopilla-chile","name":"Tocopilla, Chile","latlon":"-22.088378,-70.197658","url":"#/landing-point/tocopilla-chile","is_tbd":"false"},{"landing_point_id":15181,"id":"valdivia-chile","name":"Valdivia, Chile","latlon":"-39.813889,-73.245833","url":"#/landing-point/valdivia-chile","is_tbd":"false"},{"landing_point_id":3331,"id":"valparaso-chile","name":"Valparaíso, Chile","latlon":"-33.045521,-71.620311","url":"#/landing-point/valparaso-chile","is_tbd":"false"}],"length":"3,500 km","rfs":"2020 Q2","owners":"Grupo Gtd","url":"https://www.gtd.cl","notes":null}
