{"id":"sat-3wasc","name":"SAT-3/WASC","cable_id":1219,"landing_points":[{"landing_point_id":3316,"id":"abidjan-cte-divoire","name":"Abidjan, Côte d'Ivoire","latlon":"5.323519,-4.026241","url":"#/landing-point/abidjan-cte-divoire","is_tbd":"false"},{"landing_point_id":4181,"id":"accra-ghana","name":"Accra, Ghana","latlon":"5.558283,-0.201097","url":"#/landing-point/accra-ghana","is_tbd":"false"},{"landing_point_id":5720,"id":"alta-vista-canary-islands-spain","name":"Alta Vista, Canary Islands, Spain","latlon":"27.999501,-15.699963","url":"#/landing-point/alta-vista-canary-islands-spain","is_tbd":"false"},{"landing_point_id":5775,"id":"cacuaco-angola","name":"Cacuaco, Angola","latlon":"-8.776676,13.372330","url":"#/landing-point/cacuaco-angola","is_tbd":"false"},{"landing_point_id":7777,"id":"chipiona-spain","name":"Chipiona, Spain","latlon":"36.731307,-6.428876","url":"#/landing-point/chipiona-spain","is_tbd":"false"},{"landing_point_id":3315,"id":"cotonou-benin","name":"Cotonou, Benin","latlon":"6.356578,2.439916","url":"#/landing-point/cotonou-benin","is_tbd":"false"},{"landing_point_id":4180,"id":"dakar-senegal","name":"Dakar, Senegal","latlon":"14.686598,-17.451915","url":"#/landing-point/dakar-senegal","is_tbd":"false"},{"landing_point_id":4210,"id":"douala-cameroon","name":"Douala, Cameroon","latlon":"4.047150,9.706317","url":"#/landing-point/douala-cameroon","is_tbd":"false"},{"landing_point_id":3280,"id":"lagos-nigeria","name":"Lagos, Nigeria","latlon":"6.438875,3.423216","url":"#/landing-point/lagos-nigeria","is_tbd":"false"},{"landing_point_id":4221,"id":"libreville-gabon","name":"Libreville, Gabon","latlon":"0.394269,9.454364","url":"#/landing-point/libreville-gabon","is_tbd":"false"},{"landing_point_id":5941,"id":"melkbosstrand-south-africa","name":"Melkbosstrand, South Africa","latlon":"-33.727214,18.445764","url":"#/landing-point/melkbosstrand-south-africa","is_tbd":"false"},{"landing_point_id":5934,"id":"sesimbra-portugal","name":"Sesimbra, Portugal","latlon":"38.442693,-9.102751","url":"#/landing-point/sesimbra-portugal","is_tbd":"false"}],"length":"14,350 km","rfs":"2002 April","owners":"Telkom South Africa,  Tata Communications,  AT&T,  BT,  Camtel,  Angola Telecom,  Ghana Telecommunications Company,  Mauritius Telecom,  Verizon,  NATCOM (Nigeria),  OPT,  BICS,  T-Mobile,  Singtel,  KPN,  Orange,  Telecom Italia Sparkle,  Telecom Namibia,  Telekom Malaysia,  Telxius,  China Telecom,  Chunghwa Telecom,  Orange Cote d’Ivoire,  Deutsche Telekom,  Maroc Telecom,  KT,  Altice Portugal,  PCCW,  Telstra,  Cyta,  Neotel,  Vodafone,  Benin Telecoms","url":null,"notes":null}
