{"id":"seamewe-5","name":"SeaMeWe-5","cable_id":1559,"landing_points":[{"landing_point_id":9485,"id":"abu-talat-egypt","name":"Abu Talat, Egypt","latlon":"31.071849,29.702495","url":"#/landing-point/abu-talat-egypt","is_tbd":"false"},{"landing_point_id":7681,"id":"al-hudaydah-yemen","name":"Al Hudaydah, Yemen","latlon":"14.685559,43.008540","url":"#/landing-point/al-hudaydah-yemen","is_tbd":"false"},{"landing_point_id":3214,"id":"catania-italy","name":"Catania, Italy","latlon":"37.511589,15.067446","url":"#/landing-point/catania-italy","is_tbd":"false"},{"landing_point_id":7311,"id":"dumai-indonesia","name":"Dumai, Indonesia","latlon":"1.665606,101.447561","url":"#/landing-point/dumai-indonesia","is_tbd":"false"},{"landing_point_id":5962,"id":"fujairah-united-arab-emirates","name":"Fujairah, United Arab Emirates","latlon":"25.121693,56.333726","url":"#/landing-point/fujairah-united-arab-emirates","is_tbd":"false"},{"landing_point_id":17968,"id":"haramous-djibouti","name":"Haramous, Djibouti","latlon":"11.573679,43.161669","url":"#/landing-point/haramous-djibouti","is_tbd":"false"},{"landing_point_id":3259,"id":"karachi-pakistan","name":"Karachi, Pakistan","latlon":"24.889374,67.028542","url":"#/landing-point/karachi-pakistan","is_tbd":"false"},{"landing_point_id":15020,"id":"kuakata-bangladesh","name":"Kuakata, Bangladesh","latlon":"21.816736,90.116612","url":"#/landing-point/kuakata-bangladesh","is_tbd":"false"},{"landing_point_id":5959,"id":"marmaris-turkey","name":"Marmaris, Turkey","latlon":"36.855249,28.253668","url":"#/landing-point/marmaris-turkey","is_tbd":"false"},{"landing_point_id":15021,"id":"matara-sri-lanka","name":"Matara, Sri Lanka","latlon":"5.940833,80.539861","url":"#/landing-point/matara-sri-lanka","is_tbd":"false"},{"landing_point_id":5861,"id":"medan-indonesia","name":"Medan, Indonesia","latlon":"3.752132,98.676079","url":"#/landing-point/medan-indonesia","is_tbd":"false"},{"landing_point_id":6300,"id":"melaka-malaysia","name":"Melaka, Malaysia","latlon":"2.273178,102.220900","url":"#/landing-point/melaka-malaysia","is_tbd":"false"},{"landing_point_id":14639,"id":"ngwe-saung-myanmar","name":"Ngwe Saung, Myanmar","latlon":"16.858028,94.391218","url":"#/landing-point/ngwe-saung-myanmar","is_tbd":"false"},{"landing_point_id":10684,"id":"qalhat-oman","name":"Qalhat, Oman","latlon":"23.615093,58.591048","url":"#/landing-point/qalhat-oman","is_tbd":"false"},{"landing_point_id":5346,"id":"toulon-france","name":"Toulon, France","latlon":"43.125293,5.930343","url":"#/landing-point/toulon-france","is_tbd":"false"},{"landing_point_id":5938,"id":"tuas-singapore","name":"Tuas, Singapore","latlon":"1.338193,103.647071","url":"#/landing-point/tuas-singapore","is_tbd":"false"},{"landing_point_id":9269,"id":"yanbu-saudi-arabia","name":"Yanbu, Saudi Arabia","latlon":"24.070556,38.106981","url":"#/landing-point/yanbu-saudi-arabia","is_tbd":"false"},{"landing_point_id":9486,"id":"zafarana-egypt","name":"Zafarana, Egypt","latlon":"29.116687,32.649856","url":"#/landing-point/zafarana-egypt","is_tbd":"false"}],"length":"20,000 km","rfs":"2016 December","owners":"Telekom Malaysia,  Bangladesh Submarine Cable Company Limited (BSCCL),  China Mobile,  China Telecom,  Orange,  Myanmar Post and Telecommunication (MPT),  Saudi Telecom,  Sri Lanka Telecom,  Telkom Indonesia,  Singtel,  Telecom Italia Sparkle,  TeleYemen,  China Unicom,  du,  Turk Telekom International,  TransWorld,  Ooredoo,  Telecom Egypt,  Djibouti Telecom","url":"http://www.seamewe5.com","notes":null}
