{"id":"shefa-2","name":"SHEFA-2","cable_id":1576,"landing_points":[{"landing_point_id":8682,"id":"ayre-of-cara-united-kingdom","name":"Ayre of Cara, United Kingdom","latlon":"58.833272,-2.900119","url":"#/landing-point/ayre-of-cara-united-kingdom","is_tbd":"false"},{"landing_point_id":16809,"id":"bp-clair-ridge-united-kingdom","name":"BP Clair Ridge, United Kingdom","latlon":"60.441049,-2.294930","url":"#/landing-point/bp-clair-ridge-united-kingdom","is_tbd":"false"},{"landing_point_id":8680,"id":"banff-united-kingdom","name":"Banff, United Kingdom","latlon":"57.666865,-2.523654","url":"#/landing-point/banff-united-kingdom","is_tbd":"false"},{"landing_point_id":10353,"id":"glen-lyon-united-kingdom","name":"Glen Lyon, United Kingdom","latlon":"60.333074,-4.333419","url":"#/landing-point/glen-lyon-united-kingdom","is_tbd":"false"},{"landing_point_id":8684,"id":"maywick-united-kingdom","name":"Maywick, United Kingdom","latlon":"60.003984,-1.323802","url":"#/landing-point/maywick-united-kingdom","is_tbd":"false"},{"landing_point_id":8683,"id":"sandwick-united-kingdom","name":"Sandwick, United Kingdom","latlon":"59.995976,-1.238694","url":"#/landing-point/sandwick-united-kingdom","is_tbd":"false"},{"landing_point_id":8681,"id":"torshavn-faroe-islands","name":"Torshavn, Faroe Islands","latlon":"62.017460,-6.771845","url":"#/landing-point/torshavn-faroe-islands","is_tbd":"false"}],"length":"1,000 km","rfs":"2008 March","owners":"Shefa","url":"http://www.shefa.fo","notes":null}
