{"id":"southern-cross-cable-network-sccn","name":"Southern Cross Cable Network (SCCN)","cable_id":1009,"landing_points":[{"landing_point_id":6097,"id":"alexandria-nsw-australia","name":"Alexandria, NSW, Australia","latlon":"-33.913978,151.196256","url":"#/landing-point/alexandria-nsw-australia","is_tbd":"false"},{"landing_point_id":5781,"id":"brookvale-nsw-australia","name":"Brookvale, NSW, Australia","latlon":"-33.761157,151.273991","url":"#/landing-point/brookvale-nsw-australia","is_tbd":"false"},{"landing_point_id":3649,"id":"hillsboro-or-united-states","name":"Hillsboro, OR, United States","latlon":"45.522899,-122.989801","url":"#/landing-point/hillsboro-or-united-states","is_tbd":"false"},{"landing_point_id":5753,"id":"kahe-point-hi-united-states","name":"Kahe Point, HI, United States","latlon":"21.353982,-158.130582","url":"#/landing-point/kahe-point-hi-united-states","is_tbd":"false"},{"landing_point_id":5751,"id":"morro-bay-ca-united-states","name":"Morro Bay, CA, United States","latlon":"35.366681,-120.847203","url":"#/landing-point/morro-bay-ca-united-states","is_tbd":"false"},{"landing_point_id":5752,"id":"spencer-beach-hi-united-states","name":"Spencer Beach, HI, United States","latlon":"20.023105,-155.822087","url":"#/landing-point/spencer-beach-hi-united-states","is_tbd":"false"},{"landing_point_id":4268,"id":"suva-fiji","name":"Suva, Fiji","latlon":"-18.123812,178.437448","url":"#/landing-point/suva-fiji","is_tbd":"false"},{"landing_point_id":5918,"id":"takapuna-new-zealand","name":"Takapuna, New Zealand","latlon":"-36.787965,174.767919","url":"#/landing-point/takapuna-new-zealand","is_tbd":"false"},{"landing_point_id":5919,"id":"whenuapai-new-zealand","name":"Whenuapai, New Zealand","latlon":"-36.788806,174.623388","url":"#/landing-point/whenuapai-new-zealand","is_tbd":"false"}],"length":"30,500 km","rfs":"2000 November","owners":"Southern Cross Cable Network","url":"http://www.southerncrosscables.com","notes":null}
