{"id":"south-pacific-cable-system-spscmistral","name":"South Pacific Cable System (SPSC)/Mistral","cable_id":2054,"landing_points":[{"landing_point_id":5800,"id":"arica-chile","name":"Arica, Chile","latlon":"-18.473370,-70.306749","url":"#/landing-point/arica-chile","is_tbd":"false"},{"landing_point_id":5930,"id":"lurin-peru","name":"Lurin, Peru","latlon":"-12.278527,-76.874285","url":"#/landing-point/lurin-peru","is_tbd":"false"},{"landing_point_id":5849,"id":"puerto-san-jose-guatemala","name":"Puerto San Jose, Guatemala","latlon":"13.934612,-90.822219","url":"#/landing-point/puerto-san-jose-guatemala","is_tbd":"false"},{"landing_point_id":9789,"id":"salinas-ecuador","name":"Salinas, Ecuador","latlon":"-2.228488,-81.009062","url":"#/landing-point/salinas-ecuador","is_tbd":"false"},{"landing_point_id":3331,"id":"valparaso-chile","name":"Valparaíso, Chile","latlon":"-33.045540,-71.620310","url":"#/landing-point/valparaso-chile","is_tbd":"false"}],"length":"7,300 km","rfs":"2021 June","owners":"América Móvil,  Telxius","url":null,"notes":null}
