{"id":"south-atlantic-express-saex1","name":"South Atlantic Express (SAEx1)","cable_id":1669,"landing_points":[{"landing_point_id":3921,"id":"cape-town-south-africa","name":"Cape Town, South Africa","latlon":"-33.919164,18.421934","url":"#/landing-point/cape-town-south-africa"},{"landing_point_id":3347,"id":"fortaleza-brazil","name":"Fortaleza, Brazil","latlon":"-3.718836,-38.542968","url":"#/landing-point/fortaleza-brazil"},{"landing_point_id":17260,"id":"georgetown-saint-helena-ascension-and-tristan-da-cunha","name":"Georgetown, Saint Helena, Ascension and Tristan da Cunha","latlon":"-7.927892,-14.409252","url":"#/landing-point/georgetown-saint-helena-ascension-and-tristan-da-cunha"},{"landing_point_id":10722,"id":"jamestown-saint-helena-ascension-and-tristan-da-cunha","name":"Jamestown, Saint Helena, Ascension and Tristan da Cunha","latlon":"-15.922126,-5.704678","url":"#/landing-point/jamestown-saint-helena-ascension-and-tristan-da-cunha"},{"landing_point_id":4862,"id":"virginia-beach-va-united-states","name":"Virginia Beach, VA, United States","latlon":"36.755009,-76.059198","url":"#/landing-point/virginia-beach-va-united-states"}],"length":"14,720 km","rfs":"2021 Q1","owners":"SAEx International  Ltd.","url":"http://www.saex.net","notes":null}
