{"id":"southern-caribbean-fiber","name":"Southern Caribbean Fiber","cable_id":1619,"landing_points":[{"landing_point_id":16975,"id":"baie-mahault-guadeloupe","name":"Baie-Mahault, Guadeloupe","latlon":"16.244480,-61.571725","url":"#/landing-point/baie-mahault-guadeloupe","is_tbd":"false"},{"landing_point_id":8834,"id":"baillif-guadeloupe","name":"Baillif, Guadeloupe","latlon":"16.028941,-61.713945","url":"#/landing-point/baillif-guadeloupe","is_tbd":"false"},{"landing_point_id":4356,"id":"basseterre-saint-kitts-and-nevis","name":"Basseterre, Saint Kitts and Nevis","latlon":"17.298452,-62.731229","url":"#/landing-point/basseterre-saint-kitts-and-nevis","is_tbd":"false"},{"landing_point_id":18087,"id":"bunkum-bay-montserrat","name":"Bunkum Bay, Montserrat","latlon":"16.772302,-62.220170","url":"#/landing-point/bunkum-bay-montserrat","is_tbd":"false"},{"landing_point_id":8835,"id":"canefield-dominica","name":"Canefield, Dominica","latlon":"15.303329,-61.384843","url":"#/landing-point/canefield-dominica","is_tbd":"false"},{"landing_point_id":8838,"id":"chaguaramas-trinidad-and-tobago","name":"Chaguaramas, Trinidad and Tobago","latlon":"10.686161,-61.650810","url":"#/landing-point/chaguaramas-trinidad-and-tobago","is_tbd":"false"},{"landing_point_id":18090,"id":"dickenson-bay-antigua-and-barbuda","name":"Dickenson Bay, Antigua and Barbuda","latlon":"17.159563,-61.846850","url":"#/landing-point/dickenson-bay-antigua-and-barbuda","is_tbd":"false"},{"landing_point_id":15452,"id":"gustavia-saint-barthlemy","name":"Gustavia, Saint Barthélemy","latlon":"17.897916,-62.850549","url":"#/landing-point/gustavia-saint-barthlemy","is_tbd":"false"},{"landing_point_id":4219,"id":"kingstown-saint-vincent-and-the-grenadines","name":"Kingstown, Saint Vincent and the Grenadines","latlon":"13.145437,-61.208256","url":"#/landing-point/kingstown-saint-vincent-and-the-grenadines","is_tbd":"false"},{"landing_point_id":5905,"id":"le-lamentin-martinique","name":"Le Lamentin, Martinique","latlon":"14.615536,-61.094267","url":"#/landing-point/le-lamentin-martinique","is_tbd":"false"},{"landing_point_id":6183,"id":"needhams-point-barbados","name":"Needham’s Point, Barbados","latlon":"13.078789,-59.612725","url":"#/landing-point/needhams-point-barbados","is_tbd":"false"},{"landing_point_id":17317,"id":"point-salines-grenada","name":"Point Salines, Grenada","latlon":"12.008822,-61.790578","url":"#/landing-point/point-salines-grenada","is_tbd":"false"},{"landing_point_id":8837,"id":"rodney-bay-saint-lucia","name":"Rodney Bay, Saint Lucia","latlon":"14.035627,-60.988554","url":"#/landing-point/rodney-bay-saint-lucia","is_tbd":"false"},{"landing_point_id":4262,"id":"san-juan-pr-united-states","name":"San Juan, PR, United States","latlon":"18.465839,-66.106666","url":"#/landing-point/san-juan-pr-united-states","is_tbd":"false"},{"landing_point_id":5750,"id":"st-croix-vi-united-states","name":"St. Croix, VI, United States","latlon":"17.771864,-64.819411","url":"#/landing-point/st-croix-vi-united-states","is_tbd":"false"},{"landing_point_id":16976,"id":"st-louis-saint-martin","name":"St. Louis, Saint Martin","latlon":"18.089929,-63.078145","url":"#/landing-point/st-louis-saint-martin","is_tbd":"false"}],"length":"3,000 km","rfs":"2006 September","owners":"Digicel","url":"http://southern-caribbean.com","notes":null}
