{"id":"st-thomas-st-croix-system","name":"St. Thomas-St. Croix System","cable_id":1756,"landing_points":[{"landing_point_id":13401,"id":"banana-bay-virgin-islands-u-s-","name":"Banana Bay, Virgin Islands (U.S.)","latlon":"18.328220,-64.943776","url":"#/landing-point/banana-bay-virgin-islands-u-s-","is_tbd":"false"},{"landing_point_id":13398,"id":"brewers-bay-virgin-islands-u-s-","name":"Brewer's Bay, Virgin Islands (U.S.)","latlon":"18.342403,-64.975319","url":"#/landing-point/brewers-bay-virgin-islands-u-s-","is_tbd":"false"},{"landing_point_id":13396,"id":"christiansted-vi-united-states","name":"Christiansted, VI, United States","latlon":"17.746661,-64.703151","url":"#/landing-point/christiansted-vi-united-states","is_tbd":"false"},{"landing_point_id":13400,"id":"flamingo-bay-virgin-islands-u-s-","name":"Flamingo Bay, Virgin Islands (U.S.)","latlon":"18.312830,-64.957790","url":"#/landing-point/flamingo-bay-virgin-islands-u-s-","is_tbd":"false"},{"landing_point_id":13397,"id":"frederiksted-virgin-islands-u-s-","name":"Frederiksted, Virgin Islands (U.S.)","latlon":"17.712430,-64.881520","url":"#/landing-point/frederiksted-virgin-islands-u-s-","is_tbd":"false"},{"landing_point_id":13399,"id":"great-bay-virgin-islands-u-s-","name":"Great Bay, Virgin Islands (U.S.)","latlon":"18.322472,-64.843190","url":"#/landing-point/great-bay-virgin-islands-u-s-","is_tbd":"false"},{"landing_point_id":13402,"id":"vila-olga-virgin-islands-u-s-","name":"Vila Olga, Virgin Islands (U.S.)","latlon":"18.335728,-64.948024","url":"#/landing-point/vila-olga-virgin-islands-u-s-","is_tbd":"false"}],"length":"183 km","rfs":"2013 July","owners":"Virgin Islands Next Generation Networks,  Inc.","url":"http://www.vingn.com","notes":null}
