{"id":"west-africa-cable-system-wacs","name":"West Africa Cable System (WACS)","cable_id":1560,"landing_points":[{"landing_point_id":3316,"id":"abidjan-cte-divoire","name":"Abidjan, Côte d'Ivoire","latlon":"5.323519,-4.026241","url":"#/landing-point/abidjan-cte-divoire","is_tbd":"false"},{"landing_point_id":4181,"id":"accra-ghana","name":"Accra, Ghana","latlon":"5.558283,-0.201097","url":"#/landing-point/accra-ghana","is_tbd":"false"},{"landing_point_id":10726,"id":"el-goro-canary-islands-spain","name":"El Goro, Canary Islands, Spain","latlon":"27.959398,-15.398743","url":"#/landing-point/el-goro-canary-islands-spain","is_tbd":"false"},{"landing_point_id":3280,"id":"lagos-nigeria","name":"Lagos, Nigeria","latlon":"6.438875,3.423216","url":"#/landing-point/lagos-nigeria","is_tbd":"false"},{"landing_point_id":9846,"id":"limbe-cameroon","name":"Limbe, Cameroon","latlon":"4.014516,9.208466","url":"#/landing-point/limbe-cameroon","is_tbd":"false"},{"landing_point_id":3317,"id":"lome-togo","name":"Lome, Togo","latlon":"6.126007,1.227808","url":"#/landing-point/lome-togo","is_tbd":"false"},{"landing_point_id":9426,"id":"muanda-congo-dem-rep-","name":"Muanda, Congo, Dem. Rep.","latlon":"-5.933359,12.349870","url":"#/landing-point/muanda-congo-dem-rep-","is_tbd":"false"},{"landing_point_id":5971,"id":"pointe-noire-congo-rep-","name":"Pointe-Noire, Congo, Rep.","latlon":"-4.779092,11.863640","url":"#/landing-point/pointe-noire-congo-rep-","is_tbd":"false"},{"landing_point_id":4257,"id":"praia-cape-verde","name":"Praia, Cape Verde","latlon":"14.923011,-23.521247","url":"#/landing-point/praia-cape-verde","is_tbd":"false"},{"landing_point_id":10727,"id":"sangano-angola","name":"Sangano, Angola","latlon":"-9.490068,13.201444","url":"#/landing-point/sangano-angola","is_tbd":"false"},{"landing_point_id":9058,"id":"seixal-portugal","name":"Seixal, Portugal","latlon":"38.642278,-9.107390","url":"#/landing-point/seixal-portugal","is_tbd":"false"},{"landing_point_id":9845,"id":"swakopmund-namibia","name":"Swakopmund, Namibia","latlon":"-22.678326,14.528091","url":"#/landing-point/swakopmund-namibia","is_tbd":"false"},{"landing_point_id":9844,"id":"yzerfontein-south-africa","name":"Yzerfontein, South Africa","latlon":"-33.348224,18.155530","url":"#/landing-point/yzerfontein-south-africa","is_tbd":"false"}],"length":"14,530 km","rfs":"2012 May","owners":"Broadband Infraco,  Telkom South Africa,  Vodacom DRC,  MTN,  Tata Communications,  Togo Telecom,  Telecom Namibia,  Office Congolais de Poste et Télécommunication,  Congo Telecom,  Altice Portugal,  Angola Cables,  Cape Verde Telecom,  Vodafone Espana,  Vodafone,  Neotel,  PCCW,  Camtel,  Vodafone Ghana","url":"https://wacscable.com/","notes":"The cable provide connectivity from Portugal to the United Kingdom via dedicated fiber pairs on an existing cable."}
