{"latlon":[{"latlon":"51.273130,-80.640067"},{"latlon":"55.274593,-77.763799"},{"latlon":"56.551545,-76.547101"},{"latlon":"56.540803,-79.223222"},{"latlon":"58.455158,-78.105108"},{"latlon":"60.037090,-77.269219"},{"latlon":"60.817656,-78.144219"},{"latlon":"62.416679,-77.916680"},{"latlon":"62.201249,-75.646857"},{"latlon":"61.596269,-71.953890"},{"latlon":"60.023418,-70.026254"},{"latlon":"59.305743,-69.597495"},{"latlon":"58.697443,-69.937387"},{"latlon":"58.103009,-68.418833"},{"latlon":"58.710138,-65.995104"},{"latlon":"58.768439,-94.164963"},{"latlon":"61.108281,-94.059934"},{"latlon":"62.242558,-92.601683"},{"latlon":"62.808378,-92.085277"},{"latlon":"63.346561,-90.736840"},{"latlon":"66.528298,-86.244655"},{"latlon":"64.138846,-83.169900"},{"latlon":"64.230350,-76.540948"},{"latlon":"62.847441,-69.869223"},{"latlon":"63.748612,-68.519712"},{"latlon":"66.146560,-65.701207"},{"latlon":"67.555544,-64.025671"},{"latlon":"68.772731,-81.235233"},{"latlon":"69.372535,-81.824637"},{"latlon":"68.534743,-89.824975"},{"latlon":"73.037572,-85.148024"},{"latlon":"72.700073,-77.958526"},{"latlon":"76.410813,-82.858768"},{"latlon":"70.476343,-68.601255"},{"latlon":"67.825270,-115.096545"},{"latlon":"69.536695,-93.527122"},{"latlon":"68.635524,-95.849728"},{"latlon":"74.697337,-94.829709"},{"latlon":"62.114921,-74.630158"},{"latlon":"61.041680,-69.639926"},{"latlon":"44.434070,-63.645642"},{"latlon":"48.207604,-53.960246"},{"latlon":"53.782699,-78.893828"},{"latlon":"69.117457,-105.053874"},{"latlon":"46.252917,-60.129579"},{"latlon":"47.617663,-58.686611"},{"latlon":"44.645789,-63.573962"}],"cables":[{"cable_id":1815,"name":"Ivaluk Network","id":"ivaluk-network"},{"cable_id":1768,"name":"Polaris","id":"polaris"},{"cable_id":1569,"name":"Greenland Connect","id":"greenland-connect"},{"cable_id":1712,"name":"Arctic Fibre","id":"arctic-fibre"},{"cable_id":1293,"name":"Canada-United States 1 (CANUS 1)","id":"canada-united-states-1-canus-1"},{"cable_id":1577,"name":"Persona","id":"persona"},{"cable_id":1080,"name":"Hibernia Atlantic","id":"hibernia-atlantic"},{"cable_id":1673,"name":"Hibernia Express","id":"hibernia-express"}],"landing_points":[{"landing_point_id":15034,"name":"Moosonee, Ontario, Canada","id":"moosonee-ontario-canada"},{"landing_point_id":15042,"name":"Kuujjuarapik, Québec, Canada","id":"kuujjuarapik-qubec-canada"},{"landing_point_id":15043,"name":"Umiujaq, Québec, Canada","id":"umiujaq-qubec-canada"},{"landing_point_id":15044,"name":"Sanikiluaq, Nunavut, Canada","id":"sanikiluaq-nunavut-canada"},{"landing_point_id":15035,"name":"Inukjuak, Québec, Canada","id":"inukjuak-qubec-canada"},{"landing_point_id":15045,"name":"Puvirnituq, Québec, Canada","id":"puvirnituq-qubec-canada"},{"landing_point_id":15046,"name":"Akulivik, Québec, Canada","id":"akulivik-qubec-canada"},{"landing_point_id":15047,"name":"Ivujivik, Québec, Canada","id":"ivujivik-qubec-canada"},{"landing_point_id":15036,"name":"Salluit, Québec, Canada","id":"salluit-qubec-canada"},{"landing_point_id":15048,"name":"Kangiqsujuaq, Québec, Canada","id":"kangiqsujuaq-qubec-canada"},{"landing_point_id":15049,"name":"Kangirsuk, Québec, Canada","id":"kangirsuk-qubec-canada"},{"landing_point_id":15050,"name":"Aupaluk, Québec, Canada","id":"aupaluk-qubec-canada"},{"landing_point_id":15051,"name":"Tasiujaq, Québec, Canada","id":"tasiujaq-qubec-canada"},{"landing_point_id":15037,"name":"Kuujjuaq, Québec, Canada","id":"kuujjuaq-qubec-canada"},{"landing_point_id":15038,"name":"Kangiqsualujjuaq, Québec, Canada","id":"kangiqsualujjuaq-qubec-canada"},{"landing_point_id":15039,"name":"Churchill, Manitoba, Canada","id":"churchill-manitoba-canada"},{"landing_point_id":15052,"name":"Arviat, Nunavut, Canada","id":"arviat-nunavut-canada"},{"landing_point_id":15053,"name":"Whale Cove, Nunavut, Canada","id":"whale-cove-nunavut-canada"},{"landing_point_id":15054,"name":"Rankin Inlet, Nunavut, Canada","id":"rankin-inlet-nunavut-canada"},{"landing_point_id":15055,"name":"Chesterfield Inlet, Nunavut, Canada","id":"chesterfield-inlet-nunavut-canada"},{"landing_point_id":15040,"name":"Repulse Bay, Nunavut, Canada","id":"repulse-bay-nunavut-canada"},{"landing_point_id":15056,"name":"Coral Harbour, Nunavut, Canada","id":"coral-harbour-nunavut-canada"},{"landing_point_id":15057,"name":"Cape Dorset, Nunavut, Canada","id":"cape-dorset-nunavut-canada"},{"landing_point_id":15058,"name":"Kimmirut, Nunavut, Canada","id":"kimmirut-nunavut-canada"},{"landing_point_id":10398,"name":"Iqaluit, Nunavut, Canada","id":"iqaluit-nunavut-canada"},{"landing_point_id":15059,"name":"Pangnirtung, Nunavut, Canada","id":"pangnirtung-nunavut-canada"},{"landing_point_id":15060,"name":"Qikiqtarjuaq, Nunavut, Canada","id":"qikiqtarjuaq-nunavut-canada"},{"landing_point_id":15041,"name":"Hall Beach, Nunavut, Canada","id":"hall-beach-nunavut-canada"},{"landing_point_id":15061,"name":"Igloolik, Nunavut, Canada","id":"igloolik-nunavut-canada"},{"landing_point_id":15062,"name":"Kuqaaruk, Nunavut, Canada","id":"kuqaaruk-nunavut-canada"},{"landing_point_id":15063,"name":"Arctic Bay, Nunavut, Canada","id":"arctic-bay-nunavut-canada"},{"landing_point_id":15064,"name":"Pond Inlet, Nunavut, Canada","id":"pond-inlet-nunavut-canada"},{"landing_point_id":15065,"name":"Grise Fiord, Nunavut, Canada","id":"grise-fiord-nunavut-canada"},{"landing_point_id":15066,"name":"Clyde River, Nunavut, Canada","id":"clyde-river-nunavut-canada"},{"landing_point_id":15067,"name":"Kugluktuk, Nunavut, Canada","id":"kugluktuk-nunavut-canada"},{"landing_point_id":15068,"name":"Taloyoak, Nunavut, Canada","id":"taloyoak-nunavut-canada"},{"landing_point_id":15069,"name":"Gjoa Haven, Nunavut, Canada","id":"gjoa-haven-nunavut-canada"},{"landing_point_id":15070,"name":"Resolute, Nunavut, Canada","id":"resolute-nunavut-canada"},{"landing_point_id":15071,"name":"Deception, Québec, Canada","id":"deception-qubec-canada"},{"landing_point_id":15072,"name":"Quaqtaq, Québec, Canada","id":"quaqtaq-qubec-canada"},{"landing_point_id":3734,"name":"Pennant Point, NS, Canada","id":"pennant-point-ns-canada"},{"landing_point_id":8542,"name":"Milton, Newfoundland and Labrador, Canada","id":"milton-newfoundland-and-labrador-canada"},{"landing_point_id":13391,"name":"Chisasibi, Quebec, Canada","id":"chisasibi-quebec-canada"},{"landing_point_id":10397,"name":"Cambridge Bay, Nunavut, Canada","id":"cambridge-bay-nunavut-canada"},{"landing_point_id":9374,"name":"New Victoria, NS, Canada","id":"new-victoria-ns-canada"},{"landing_point_id":9375,"name":"Rose Blanche, NL, Canada","id":"rose-blanche-nl-canada"},{"landing_point_id":3640,"name":"Halifax, Nova Scotia, Canada","id":"halifax-nova-scotia-canada"}],"name":"Canada"}
