{"latlon":[{"latlon":"48.207604,-53.960246"},{"latlon":"53.782699,-78.893828"},{"latlon":"69.117457,-105.053874"},{"latlon":"44.434070,-63.645642"},{"latlon":"46.252917,-60.129579"},{"latlon":"47.617663,-58.686611"},{"latlon":"44.645789,-63.573962"}],"landing_points":[{"landing_point_id":8542,"name":"Milton, Newfoundland and Labrador, Canada","id":"milton-newfoundland-and-labrador-canada"},{"landing_point_id":13391,"name":"Chisasibi, Quebec, Canada","id":"chisasibi-quebec-canada"},{"landing_point_id":10397,"name":"Cambridge Bay, Nunavut, Canada","id":"cambridge-bay-nunavut-canada"},{"landing_point_id":3734,"name":"Pennant Point, NS, Canada","id":"pennant-point-ns-canada"},{"landing_point_id":9374,"name":"New Victoria, NS, Canada","id":"new-victoria-ns-canada"},{"landing_point_id":9375,"name":"Rose Blanche, NL, Canada","id":"rose-blanche-nl-canada"},{"landing_point_id":3640,"name":"Halifax, Nova Scotia, Canada","id":"halifax-nova-scotia-canada"}],"name":"Canada","cables":[{"cable_id":1569,"name":"Greenland Connect","id":"greenland-connect"},{"cable_id":1712,"name":"Arctic Fibre","id":"arctic-fibre"},{"cable_id":1768,"name":"Polaris","id":"polaris"},{"cable_id":1293,"name":"Canada-United States 1 (CANUS 1)","id":"canada-united-states-1-canus-1"},{"cable_id":1577,"name":"Persona","id":"persona"},{"cable_id":1080,"name":"Hibernia Atlantic","id":"hibernia-atlantic"},{"cable_id":1673,"name":"Hibernia Express","id":"hibernia-express"}]}
