{"latlon":[{"latlon":"48.207610,-53.960275"},{"latlon":"53.782688,-78.893832"},{"latlon":"69.117466,-105.053865"},{"latlon":"44.434072,-63.645638"},{"latlon":"46.252879,-60.129592"},{"latlon":"47.617637,-58.686583"},{"latlon":"44.645788,-63.573962"}],"landing_points":[{"name":"Milton, Newfoundland and Labrador, Canada","landing_point_id":8542,"id":"milton-newfoundland-and-labrador-canada"},{"name":"Chisasibi, Quebec, Canada","landing_point_id":13391,"id":"chisasibi-quebec-canada"},{"name":"Cambridge Bay, Nunavut, Canada","landing_point_id":10397,"id":"cambridge-bay-nunavut-canada"},{"name":"Pennant Point, NS, Canada","landing_point_id":3734,"id":"pennant-point-ns-canada"},{"name":"New Victoria, NS, Canada","landing_point_id":9374,"id":"new-victoria-ns-canada"},{"name":"Rose Blanche, NL, Canada","landing_point_id":9375,"id":"rose-blanche-nl-canada"},{"name":"Halifax, Nova Scotia, Canada","landing_point_id":3640,"id":"halifax-nova-scotia-canada"}],"cables":[{"name":"Greenland Connect","cable_id":1569,"id":"greenland-connect"},{"name":"Arctic Fibre","cable_id":1712,"id":"arctic-fibre"},{"name":"Polaris","cable_id":1768,"id":"polaris"},{"name":"Canada-United States 1 (CANUS 1)","cable_id":1293,"id":"canada-united-states-1-canus-1"},{"name":"Persona","cable_id":1577,"id":"persona"},{"name":"Hibernia Atlantic","cable_id":1080,"id":"hibernia-atlantic"},{"name":"Hibernia Express","cable_id":1673,"id":"hibernia-express"}],"name":"Canada"}
