{"landing_points":[{"landing_point_id":9486,"name":"Zafarana, Egypt","id":"zafarana-egypt"},{"landing_point_id":16715,"name":"Quseer, Egypt","id":"quseer-egypt"},{"landing_point_id":10498,"name":"Taba, Egypt","id":"taba-egypt"},{"landing_point_id":6044,"name":"Alexandria, Egypt","id":"alexandria-egypt"},{"landing_point_id":5825,"name":"Suez, Egypt","id":"suez-egypt"},{"landing_point_id":9485,"name":"Abu Talat, Egypt","id":"abu-talat-egypt"}],"cables":[{"name":"Africa-1","id":"africa-1","cable_id":1878},{"name":"Liquid Sea","id":"liquid-sea","cable_id":1864},{"name":"Taba-Aqaba","id":"taba-aqaba","cable_id":1806},{"name":"FLAG Europe-Asia (FEA)","id":"flag-europe-asia-fea","cable_id":1027},{"name":"SeaMeWe-3","id":"seamewe-3","cable_id":1031},{"name":"Aletar","id":"aletar","cable_id":1319},{"name":"SeaMeWe-4","id":"seamewe-4","cable_id":1035},{"name":"FALCON","id":"falcon","cable_id":1346},{"name":"IMEWE","id":"imewe","cable_id":1536},{"name":"Hawk","id":"hawk","cable_id":1523},{"name":"SeaMeWe-5","id":"seamewe-5","cable_id":1559},{"name":"Asia Africa Europe-1 (AAE-1)","id":"asia-africa-europe-1-aae-1","cable_id":1739},{"name":"SEACOM/Tata TGN-Eurasia","id":"seacomtata-tgn-eurasia","cable_id":1552},{"name":"Middle East North Africa (MENA) Cable System/Gulf Bridge International","id":"middle-east-north-africa-mena-cable-systemgulf-bridge-international","cable_id":1558},{"name":"TE North/TGN-Eurasia/SEACOM/Alexandros","id":"te-northtgn-eurasiaseacomalexandros","cable_id":1573},{"name":"Europe India Gateway (EIG)","id":"europe-india-gateway-eig","cable_id":1580}],"name":"Egypt","latlon":[{"latlon":"29.116658,32.649893"},{"latlon":"26.106821,34.274355"},{"latlon":"29.492574,34.894863"},{"latlon":"31.191889,29.889787"},{"latlon":"29.972285,32.530118"},{"latlon":"29.116683,32.649844"},{"latlon":"31.071845,29.702482"}]}
