{"landing_points":[{"landing_point_id":16720,"name":"Sisimiut, Greenland","id":"sisimiut-greenland"},{"landing_point_id":16719,"name":"Maniitsoq, Greenland","id":"maniitsoq-greenland"},{"landing_point_id":16718,"name":"Aasiaat, Greenland","id":"aasiaat-greenland"},{"landing_point_id":8488,"name":"Nuuk, Greenland","id":"nuuk-greenland"},{"landing_point_id":8543,"name":"Qaqortoq, Greenland","id":"qaqortoq-greenland"}],"cables":[{"name":"Greenland Connect North","id":"greenland-connect-north","cable_id":1897},{"name":"Greenland Connect","id":"greenland-connect","cable_id":1569}],"name":"Greenland","latlon":[{"latlon":"66.939467,-53.673381"},{"latlon":"65.407681,-52.905718"},{"latlon":"68.706971,-52.859111"},{"latlon":"64.181131,-51.729962"},{"latlon":"60.718938,-46.035396"}]}
