{"latlon":[{"latlon":"66.939467,-53.673381"},{"latlon":"65.407681,-52.905718"},{"latlon":"68.706971,-52.859111"},{"latlon":"64.181131,-51.729962"},{"latlon":"60.718938,-46.035396"}],"cables":[{"cable_id":1569,"name":"Greenland Connect","id":"greenland-connect"}],"landing_points":[{"name":"Sisimiut, Greenland","landing_point_id":16720,"id":"sisimiut-greenland"},{"name":"Maniitsoq, Greenland","landing_point_id":16719,"id":"maniitsoq-greenland"},{"name":"Aasiaat, Greenland","landing_point_id":16718,"id":"aasiaat-greenland"},{"name":"Nuuk, Greenland","landing_point_id":8488,"id":"nuuk-greenland"},{"name":"Qaqortoq, Greenland","landing_point_id":8543,"id":"qaqortoq-greenland"}],"name":"Greenland"}
