{"name":"Hong Kong","cables":[{"id":"flag-europe-asia-fea","name":"FLAG Europe-Asia (FEA)","cable_id":1027},{"id":"seamewe-3","name":"SeaMeWe-3","cable_id":1031},{"id":"flag-north-asia-loopreach-north-asia-loop","name":"FLAG North Asia Loop/REACH North Asia Loop","cable_id":1150},{"id":"apcn-2","name":"APCN-2","cable_id":1049},{"id":"asia-america-gateway-aag-cable-system","name":"Asia-America Gateway (AAG) Cable System","cable_id":1507},{"id":"tata-tgn-intra-asia-tgn-ia","name":"Tata TGN-Intra Asia (TGN-IA)","cable_id":1534},{"id":"pacific-light-cable-network-plcn","name":"Pacific Light Cable Network (PLCN)","cable_id":1858},{"id":"asia-pacific-gateway-apg","name":"Asia Pacific Gateway (APG)","cable_id":1617},{"id":"asia-submarine-cable-express-asecahaya-malaysia","name":"Asia Submarine-cable Express (ASE)/Cahaya Malaysia","cable_id":1679},{"id":"eac-c2c","name":"EAC-C2C","cable_id":1592},{"id":"southeast-asia-japan-cable-sjc","name":"Southeast Asia Japan Cable (SJC) ","cable_id":1604}],"landing_points":[{"id":"lantau-island-hong-kong","name":"Lantau Island, Hong Kong","landing_point_id":5852},{"id":"deep-water-bay-hong-kong","name":"Deep Water Bay, Hong Kong","landing_point_id":5853},{"id":"tong-fuk-hong-kong","name":"Tong Fuk, Hong Kong","landing_point_id":5855},{"id":"tseung-kwan-o-hong-kong","name":"Tseung Kwan O, Hong Kong","landing_point_id":5857},{"id":"chung-hom-kok-hong-kong","name":"Chung Hom Kok, Hong Kong","landing_point_id":5856}],"latlon":[{"latlon":"22.271496,113.948341"},{"latlon":"22.249437,114.183985"},{"latlon":"22.227379,113.932130"},{"latlon":"22.318297,114.258692"},{"latlon":"22.222045,114.203028"},{"latlon":"22.225036,114.205665"}]}
