{"latlon":[{"latlon":"22.271490,113.948400"},{"latlon":"22.249405,114.184008"},{"latlon":"22.227320,113.932137"},{"latlon":"22.318270,114.258695"},{"latlon":"22.222100,114.203081"},{"latlon":"22.225011,114.205691"}],"landing_points":[{"name":"Lantau Island, Hong Kong","landing_point_id":5852,"id":"lantau-island-hong-kong"},{"name":"Deep Water Bay, Hong Kong","landing_point_id":5853,"id":"deep-water-bay-hong-kong"},{"name":"Tong Fuk, Hong Kong","landing_point_id":5855,"id":"tong-fuk-hong-kong"},{"name":"Tseung Kwan O, Hong Kong","landing_point_id":5857,"id":"tseung-kwan-o-hong-kong"},{"name":"Chung Hom Kok, Hong Kong","landing_point_id":5856,"id":"chung-hom-kok-hong-kong"}],"cables":[{"name":"FLAG Europe-Asia (FEA)","cable_id":1027,"id":"flag-europe-asia-fea"},{"name":"SeaMeWe-3","cable_id":1031,"id":"seamewe-3"},{"name":"FLAG North Asia Loop/REACH North Asia Loop","cable_id":1150,"id":"flag-north-asia-loopreach-north-asia-loop"},{"name":"APCN-2","cable_id":1049,"id":"apcn-2"},{"name":"Asia-America Gateway (AAG) Cable System","cable_id":1507,"id":"asia-america-gateway-aag-cable-system"},{"name":"Tata TGN-Intra Asia (TGN-IA)","cable_id":1534,"id":"tata-tgn-intra-asia-tgn-ia"},{"name":"Asia Pacific Gateway (APG)","cable_id":1617,"id":"asia-pacific-gateway-apg"},{"name":"Asia Submarine-cable Express (ASE)/Cahaya Malaysia","cable_id":1679,"id":"asia-submarine-cable-express-asecahaya-malaysia"},{"name":"EAC-C2C","cable_id":1592,"id":"eac-c2c"},{"name":"Southeast Asia Japan Cable (SJC) ","cable_id":1604,"id":"southeast-asia-japan-cable-sjc"}],"name":"Hong Kong"}
