{"latlon":[{"latlon":"22.271496,113.948341"},{"latlon":"22.249437,114.183985"},{"latlon":"22.227379,113.932130"},{"latlon":"22.318297,114.258692"},{"latlon":"22.222045,114.203028"},{"latlon":"22.225036,114.205665"}],"cables":[{"cable_id":1027,"name":"FLAG Europe-Asia (FEA)","id":"flag-europe-asia-fea"},{"cable_id":1031,"name":"SeaMeWe-3","id":"seamewe-3"},{"cable_id":1150,"name":"FLAG North Asia Loop/REACH North Asia Loop","id":"flag-north-asia-loopreach-north-asia-loop"},{"cable_id":1049,"name":"APCN-2","id":"apcn-2"},{"cable_id":1507,"name":"Asia-America Gateway (AAG) Cable System","id":"asia-america-gateway-aag-cable-system"},{"cable_id":1534,"name":"Tata TGN-Intra Asia (TGN-IA)","id":"tata-tgn-intra-asia-tgn-ia"},{"cable_id":1858,"name":"Pacific Light Cable Network (PLCN)","id":"pacific-light-cable-network-plcn"},{"cable_id":1617,"name":"Asia Pacific Gateway (APG)","id":"asia-pacific-gateway-apg"},{"cable_id":1679,"name":"Asia Submarine-cable Express (ASE)/Cahaya Malaysia","id":"asia-submarine-cable-express-asecahaya-malaysia"},{"cable_id":1592,"name":"EAC-C2C","id":"eac-c2c"},{"cable_id":1604,"name":"Southeast Asia Japan Cable (SJC) ","id":"southeast-asia-japan-cable-sjc"}],"landing_points":[{"name":"Lantau Island, Hong Kong","landing_point_id":5852,"id":"lantau-island-hong-kong"},{"name":"Deep Water Bay, Hong Kong","landing_point_id":5853,"id":"deep-water-bay-hong-kong"},{"name":"Tong Fuk, Hong Kong","landing_point_id":5855,"id":"tong-fuk-hong-kong"},{"name":"Tseung Kwan O, Hong Kong","landing_point_id":5857,"id":"tseung-kwan-o-hong-kong"},{"name":"Chung Hom Kok, Hong Kong","landing_point_id":5856,"id":"chung-hom-kok-hong-kong"}],"name":"Hong Kong"}
