{"landing_points":[{"landing_point_id":5852,"name":"Lantau Island, Hong Kong","id":"lantau-island-hong-kong"},{"landing_point_id":5853,"name":"Deep Water Bay, Hong Kong","id":"deep-water-bay-hong-kong"},{"landing_point_id":5855,"name":"Tong Fuk, Hong Kong","id":"tong-fuk-hong-kong"},{"landing_point_id":5857,"name":"Tseung Kwan O, Hong Kong","id":"tseung-kwan-o-hong-kong"},{"landing_point_id":5856,"name":"Chung Hom Kok, Hong Kong","id":"chung-hom-kok-hong-kong"}],"cables":[{"name":"FLAG Europe-Asia (FEA)","id":"flag-europe-asia-fea","cable_id":1027},{"name":"SeaMeWe-3","id":"seamewe-3","cable_id":1031},{"name":"FLAG North Asia Loop/REACH North Asia Loop","id":"flag-north-asia-loopreach-north-asia-loop","cable_id":1150},{"name":"APCN-2","id":"apcn-2","cable_id":1049},{"name":"Asia-America Gateway (AAG) Cable System","id":"asia-america-gateway-aag-cable-system","cable_id":1507},{"name":"Tata TGN-Intra Asia (TGN-IA)","id":"tata-tgn-intra-asia-tgn-ia","cable_id":1534},{"name":"Pacific Light Cable Network (PLCN)","id":"pacific-light-cable-network-plcn","cable_id":1858},{"name":"Asia Pacific Gateway (APG)","id":"asia-pacific-gateway-apg","cable_id":1617},{"name":"Asia Submarine-cable Express (ASE)/Cahaya Malaysia","id":"asia-submarine-cable-express-asecahaya-malaysia","cable_id":1679},{"name":"EAC-C2C","id":"eac-c2c","cable_id":1592},{"name":"Southeast Asia Japan Cable (SJC) ","id":"southeast-asia-japan-cable-sjc","cable_id":1604}],"name":"Hong Kong","latlon":[{"latlon":"22.271496,113.948341"},{"latlon":"22.249437,114.183985"},{"latlon":"22.227379,113.932130"},{"latlon":"22.318297,114.258692"},{"latlon":"22.222045,114.203028"},{"latlon":"22.225036,114.205665"}]}
