{"latlon":[{"latlon":"19.075779,72.875866"},{"latlon":"9.938075,76.269541"},{"latlon":"13.063516,80.243049"},{"latlon":"8.802199,78.145167"},{"latlon":"8.798184,76.970240"}],"landing_points":[{"name":"Mumbai, India","landing_point_id":3212,"id":"mumbai-india"},{"name":"Cochin, India","landing_point_id":4322,"id":"cochin-india"},{"name":"Chennai, India","landing_point_id":4191,"id":"chennai-india"},{"name":"Tuticorine, India","landing_point_id":7678,"id":"tuticorine-india"},{"name":"Trivendrum, India","landing_point_id":7706,"id":"trivendrum-india"}],"cables":[{"name":"Bay of Bengal Gateway (BBG)","cable_id":1735,"id":"bay-of-bengal-gateway-bbg"},{"name":"FLAG Europe-Asia (FEA)","cable_id":1027,"id":"flag-europe-asia-fea"},{"name":"SeaMeWe-3","cable_id":1031,"id":"seamewe-3"},{"name":"i2i Cable Network (i2icn)","cable_id":1179,"id":"i2i-cable-network-i2icn"},{"name":"SAFE","cable_id":1220,"id":"safe"},{"name":"Tata TGN-Tata Indicom","cable_id":1252,"id":"tata-tgn-tata-indicom"},{"name":"SeaMeWe-4","cable_id":1035,"id":"seamewe-4"},{"name":"Bharat Lanka Cable System","cable_id":1356,"id":"bharat-lanka-cable-system"},{"name":"FLAG FALCON","cable_id":1346,"id":"flag-falcon"},{"name":"WARF Submarine Cable","cable_id":1517,"id":"warf-submarine-cable"},{"name":"SEACOM/Tata TGN-Eurasia","cable_id":1552,"id":"seacomtata-tgn-eurasia"},{"name":"IMEWE","cable_id":1536,"id":"imewe"},{"name":"Europe India Gateway (EIG)","cable_id":1580,"id":"europe-india-gateway-eig"},{"name":"Gulf Bridge International Cable System (GBICS)/Middle East North Africa (MENA) Cable System","cable_id":1598,"id":"gulf-bridge-international-cable-system-gbicsmiddle-east-north-africa-mena-cable-system"}],"name":"India"}
