{"landing_points":[{"landing_point_id":3212,"name":"Mumbai, India","id":"mumbai-india"},{"landing_point_id":4322,"name":"Cochin, India","id":"cochin-india"},{"landing_point_id":4191,"name":"Chennai, India","id":"chennai-india"},{"landing_point_id":7678,"name":"Tuticorine, India","id":"tuticorine-india"},{"landing_point_id":7706,"name":"Trivendrum, India","id":"trivendrum-india"}],"cables":[{"name":"Africa-1","id":"africa-1","cable_id":1878},{"name":"Asia Africa Europe-1 (AAE-1)","id":"asia-africa-europe-1-aae-1","cable_id":1739},{"name":"Bay of Bengal Gateway (BBG)","id":"bay-of-bengal-gateway-bbg","cable_id":1735},{"name":"FLAG Europe-Asia (FEA)","id":"flag-europe-asia-fea","cable_id":1027},{"name":"SeaMeWe-3","id":"seamewe-3","cable_id":1031},{"name":"i2i Cable Network (i2icn)","id":"i2i-cable-network-i2icn","cable_id":1179},{"name":"SAFE","id":"safe","cable_id":1220},{"name":"Tata TGN-Tata Indicom","id":"tata-tgn-tata-indicom","cable_id":1252},{"name":"SeaMeWe-4","id":"seamewe-4","cable_id":1035},{"name":"Bharat Lanka Cable System","id":"bharat-lanka-cable-system","cable_id":1356},{"name":"FALCON","id":"falcon","cable_id":1346},{"name":"WARF Submarine Cable","id":"warf-submarine-cable","cable_id":1517},{"name":"SEACOM/Tata TGN-Eurasia","id":"seacomtata-tgn-eurasia","cable_id":1552},{"name":"IMEWE","id":"imewe","cable_id":1536},{"name":"Europe India Gateway (EIG)","id":"europe-india-gateway-eig","cable_id":1580},{"name":"Gulf Bridge International Cable System (GBICS)/Middle East North Africa (MENA) Cable System","id":"gulf-bridge-international-cable-system-gbicsmiddle-east-north-africa-mena-cable-system","cable_id":1598}],"name":"India","latlon":[{"latlon":"19.076075,72.875875"},{"latlon":"19.075794,72.875899"},{"latlon":"9.938091,76.269550"},{"latlon":"13.063480,80.243083"},{"latlon":"8.802203,78.145135"},{"latlon":"8.798150,76.970233"}]}
