{"latlon":[{"latlon":"40.148050,18.485703"},{"latlon":"45.495874,12.244105"},{"latlon":"39.215311,9.109340"},{"latlon":"42.091127,11.796839"},{"latlon":"40.922512,9.486879"},{"latlon":"38.121500,13.358362"},{"latlon":"37.650126,12.591272"},{"latlon":"44.305543,8.483755"},{"latlon":"37.511588,15.067443"},{"latlon":"41.125490,16.866661"},{"latlon":"38.017948,12.513636"},{"latlon":"36.733720,14.853869"}],"cables":[{"cable_id":1299,"name":"Italy-Greece 1","id":"italy-greece-1"},{"cable_id":1286,"name":"Italy-Croatia","id":"italy-croatia"},{"cable_id":1729,"name":"Janna","id":"janna"},{"cable_id":1027,"name":"FLAG Europe-Asia (FEA)","id":"flag-europe-asia-fea"},{"cable_id":1772,"name":"Didon","id":"didon"},{"cable_id":1031,"name":"SeaMeWe-3","id":"seamewe-3"},{"cable_id":1046,"name":"Columbus-III","id":"columbus-iii"},{"cable_id":1302,"name":"Italy-Monaco","id":"italy-monaco"},{"cable_id":1053,"name":"BARSAV","id":"barsav"},{"cable_id":1065,"name":"Lev Submarine System","id":"lev-submarine-system"},{"cable_id":1559,"name":"SeaMeWe-5","id":"seamewe-5"},{"cable_id":1185,"name":"MedNautilus Submarine System","id":"mednautilus-submarine-system"},{"cable_id":1287,"name":"Italy-Libya","id":"italy-libya"},{"cable_id":1301,"name":"Italy-Malta","id":"italy-malta"},{"cable_id":1249,"name":"Vodafone Malta-Sicily Cable System (VMSCS)","id":"vodafone-malta-sicily-cable-system-vmscs"},{"cable_id":1035,"name":"SeaMeWe-4","id":"seamewe-4"},{"cable_id":1739,"name":"Asia Africa Europe-1 (AAE-1)","id":"asia-africa-europe-1-aae-1"},{"cable_id":1296,"name":"Italy-Albania","id":"italy-albania"},{"cable_id":1383,"name":"Greece-Western Europe Network (GWEN)","id":"greece-western-europe-network-gwen"},{"cable_id":1555,"name":"Trapani-Kelibia ","id":"trapani-kelibia"},{"cable_id":1536,"name":"IMEWE","id":"imewe"},{"cable_id":1558,"name":"Middle East North Africa (MENA) Cable System/Gulf Bridge International","id":"middle-east-north-africa-mena-cable-systemgulf-bridge-international"},{"cable_id":1581,"name":"GO-1 Mediterranean Cable System","id":"go-1-mediterranean-cable-system"},{"cable_id":1602,"name":"Melita 1","id":"melita-1"},{"cable_id":1621,"name":"HANNIBAL System","id":"hannibal-system"},{"cable_id":1677,"name":"Jonah","id":"jonah"}],"landing_points":[{"name":"Otranto, Italy","landing_point_id":6027,"id":"otranto-italy"},{"name":"Mestre, Italy","landing_point_id":6016,"id":"mestre-italy"},{"name":"Cagliari, Italy","landing_point_id":3162,"id":"cagliari-italy"},{"name":"Civitavecchia, Italy","landing_point_id":7751,"id":"civitavecchia-italy"},{"name":"Olbia, Italy","landing_point_id":8592,"id":"olbia-italy"},{"name":"Palermo, Italy","landing_point_id":3177,"id":"palermo-italy"},{"name":"Mazara del Vallo, Italy","landing_point_id":3215,"id":"mazara-del-vallo-italy"},{"name":"Savona, Italy","landing_point_id":5880,"id":"savona-italy"},{"name":"Catania, Italy","landing_point_id":3214,"id":"catania-italy"},{"name":"Bari, Italy","landing_point_id":3160,"id":"bari-italy"},{"name":"Trapani, Italy","landing_point_id":5876,"id":"trapani-italy"},{"name":"Pozzallo, Italy","landing_point_id":8972,"id":"pozzallo-italy"}],"name":"Italy"}
