{"landing_points":[{"landing_point_id":6027,"name":"Otranto, Italy","id":"otranto-italy"},{"landing_point_id":6016,"name":"Mestre, Italy","id":"mestre-italy"},{"landing_point_id":3162,"name":"Cagliari, Italy","id":"cagliari-italy"},{"landing_point_id":7751,"name":"Civitavecchia, Italy","id":"civitavecchia-italy"},{"landing_point_id":8592,"name":"Olbia, Italy","id":"olbia-italy"},{"landing_point_id":3177,"name":"Palermo, Italy","id":"palermo-italy"},{"landing_point_id":3215,"name":"Mazara del Vallo, Italy","id":"mazara-del-vallo-italy"},{"landing_point_id":5880,"name":"Savona, Italy","id":"savona-italy"},{"landing_point_id":3214,"name":"Catania, Italy","id":"catania-italy"},{"landing_point_id":3160,"name":"Bari, Italy","id":"bari-italy"},{"landing_point_id":5876,"name":"Trapani, Italy","id":"trapani-italy"},{"landing_point_id":8972,"name":"Pozzallo, Italy","id":"pozzallo-italy"}],"cables":[{"cable_id":1299,"name":"Italy-Greece 1","id":"italy-greece-1"},{"cable_id":1286,"name":"Italy-Croatia","id":"italy-croatia"},{"cable_id":1729,"name":"Janna","id":"janna"},{"cable_id":1027,"name":"FLAG Europe-Asia (FEA)","id":"flag-europe-asia-fea"},{"cable_id":1772,"name":"Didon","id":"didon"},{"cable_id":1031,"name":"SeaMeWe-3","id":"seamewe-3"},{"cable_id":1046,"name":"Columbus-III","id":"columbus-iii"},{"cable_id":1302,"name":"Italy-Monaco","id":"italy-monaco"},{"cable_id":1053,"name":"BARSAV","id":"barsav"},{"cable_id":1065,"name":"Lev Submarine System","id":"lev-submarine-system"},{"cable_id":1559,"name":"SeaMeWe-5","id":"seamewe-5"},{"cable_id":1185,"name":"MedNautilus Submarine System","id":"mednautilus-submarine-system"},{"cable_id":1287,"name":"Italy-Libya","id":"italy-libya"},{"cable_id":1301,"name":"Italy-Malta","id":"italy-malta"},{"cable_id":1249,"name":"Vodafone Malta-Sicily Cable System (VMSCS)","id":"vodafone-malta-sicily-cable-system-vmscs"},{"cable_id":1035,"name":"SeaMeWe-4","id":"seamewe-4"},{"cable_id":1668,"name":"Balkans-Italy Network (BIN)","id":"balkans-italy-network-bin"},{"cable_id":1739,"name":"Asia Africa Europe-1 (AAE-1)","id":"asia-africa-europe-1-aae-1"},{"cable_id":1296,"name":"Italy-Albania","id":"italy-albania"},{"cable_id":1383,"name":"Greece-Western Europe Network (GWEN)","id":"greece-western-europe-network-gwen"},{"cable_id":1555,"name":"Trapani-Kelibia","id":"trapani-kelibia"},{"cable_id":1536,"name":"IMEWE","id":"imewe"},{"cable_id":1558,"name":"Middle East North Africa (MENA) Cable System/Gulf Bridge International","id":"middle-east-north-africa-mena-cable-systemgulf-bridge-international"},{"cable_id":1581,"name":"GO-1 Mediterranean Cable System","id":"go-1-mediterranean-cable-system"},{"cable_id":1602,"name":"Melita 1","id":"melita-1"},{"cable_id":1621,"name":"HANNIBAL System","id":"hannibal-system"},{"cable_id":1677,"name":"Jonah","id":"jonah"}],"name":"Italy","latlon":[{"latlon":"40.148037,18.485715"},{"latlon":"45.495886,12.244117"},{"latlon":"39.215323,9.109353"},{"latlon":"42.091103,11.796851"},{"latlon":"40.922549,9.486892"},{"latlon":"38.121476,13.358374"},{"latlon":"37.650089,12.591285"},{"latlon":"44.305555,8.483767"},{"latlon":"37.511613,15.067455"},{"latlon":"41.125478,16.866673"},{"latlon":"38.017960,12.513648"},{"latlon":"36.733684,14.853881"}]}
