{"latlon":[{"latlon":"40.148060,18.485726"},{"latlon":"45.495863,12.244080"},{"latlon":"39.215367,9.109404"},{"latlon":"42.091146,11.796857"},{"latlon":"40.922544,9.486858"},{"latlon":"38.121453,13.358373"},{"latlon":"37.650037,12.591318"},{"latlon":"44.305577,8.483793"},{"latlon":"37.511603,15.067457"},{"latlon":"41.125526,16.866689"},{"latlon":"38.017954,12.513618"},{"latlon":"36.733707,14.853834"}],"landing_points":[{"name":"Otranto, Italy","landing_point_id":6027,"id":"otranto-italy"},{"name":"Mestre, Italy","landing_point_id":6016,"id":"mestre-italy"},{"name":"Cagliari, Italy","landing_point_id":3162,"id":"cagliari-italy"},{"name":"Civitavecchia, Italy","landing_point_id":7751,"id":"civitavecchia-italy"},{"name":"Olbia, Italy","landing_point_id":8592,"id":"olbia-italy"},{"name":"Palermo, Italy","landing_point_id":3177,"id":"palermo-italy"},{"name":"Mazara del Vallo, Italy","landing_point_id":3215,"id":"mazara-del-vallo-italy"},{"name":"Savona, Italy","landing_point_id":5880,"id":"savona-italy"},{"name":"Catania, Italy","landing_point_id":3214,"id":"catania-italy"},{"name":"Bari, Italy","landing_point_id":3160,"id":"bari-italy"},{"name":"Trapani, Italy","landing_point_id":5876,"id":"trapani-italy"},{"name":"Pozzallo, Italy","landing_point_id":8972,"id":"pozzallo-italy"}],"cables":[{"name":"Italy-Greece 1","cable_id":1299,"id":"italy-greece-1"},{"name":"Italy-Croatia","cable_id":1286,"id":"italy-croatia"},{"name":"Janna","cable_id":1729,"id":"janna"},{"name":"ITUR","cable_id":1300,"id":"itur"},{"name":"FLAG Europe-Asia (FEA)","cable_id":1027,"id":"flag-europe-asia-fea"},{"name":"Didon","cable_id":1772,"id":"didon"},{"name":"SeaMeWe-3","cable_id":1031,"id":"seamewe-3"},{"name":"Columbus-III","cable_id":1046,"id":"columbus-iii"},{"name":"Italy-Monaco","cable_id":1302,"id":"italy-monaco"},{"name":"BARSAV","cable_id":1053,"id":"barsav"},{"name":"Lev Submarine System","cable_id":1065,"id":"lev-submarine-system"},{"name":"MedNautilus Submarine System","cable_id":1185,"id":"mednautilus-submarine-system"},{"name":"Italy-Libya","cable_id":1287,"id":"italy-libya"},{"name":"Italy-Malta","cable_id":1301,"id":"italy-malta"},{"name":"Vodafone Malta-Sicily Cable System (VMSCS)","cable_id":1249,"id":"vodafone-malta-sicily-cable-system-vmscs"},{"name":"SeaMeWe-4","cable_id":1035,"id":"seamewe-4"},{"name":"Italy-Albania","cable_id":1296,"id":"italy-albania"},{"name":"Greece-Western Europe Network (GWEN)","cable_id":1383,"id":"greece-western-europe-network-gwen"},{"name":"Trapani-Kelibia","cable_id":1555,"id":"trapani-kelibia"},{"name":"IMEWE","cable_id":1536,"id":"imewe"},{"name":"Middle East North Africa (MENA) Cable System/Gulf Bridge International","cable_id":1558,"id":"middle-east-north-africa-mena-cable-systemgulf-bridge-international"},{"name":"GO-1 Mediterranean Cable System","cable_id":1581,"id":"go-1-mediterranean-cable-system"},{"name":"Melita 1","cable_id":1602,"id":"melita-1"},{"name":"HANNIBAL System","cable_id":1621,"id":"hannibal-system"},{"name":"Balkans-Italy Network (BIN)","cable_id":1668,"id":"balkans-italy-network-bin"},{"name":"Jonah","cable_id":1677,"id":"jonah"}],"name":"Italy"}
