{"latlon":[{"latlon":"34.336834,136.874380"},{"latlon":"36.383562,140.612268"},{"latlon":"36.801787,140.750940"},{"latlon":"35.037517,139.816956"},{"latlon":"35.144036,139.620667"},{"latlon":"26.212412,127.680561"},{"latlon":"34.976653,139.954652"},{"latlon":"35.299443,139.255433"},{"latlon":"35.035845,140.016761"},{"latlon":"34.769060,137.391567"},{"latlon":"35.062383,140.061097"},{"latlon":"33.590301,130.401653"},{"latlon":"33.839276,131.032024"},{"latlon":"43.171180,141.315393"},{"latlon":"37.169743,138.242152"}],"cables":[{"cable_id":1794,"name":"FASTER","id":"faster"},{"cable_id":1617,"name":"Asia Pacific Gateway (APG)","id":"asia-pacific-gateway-apg"},{"cable_id":1007,"name":"Pacific Crossing-1 (PC-1)","id":"pacific-crossing-1-pc-1"},{"cable_id":1010,"name":"Japan-U.S. Cable Network (JUS)","id":"japan-u-s-cable-network-jus"},{"cable_id":1786,"name":"New Cross Pacific (NCP) Cable System","id":"new-cross-pacific-ncp-cable-system"},{"cable_id":1679,"name":"Asia Submarine-cable Express (ASE)/Cahaya Malaysia","id":"asia-submarine-cable-express-asecahaya-malaysia"},{"cable_id":1027,"name":"FLAG Europe-Asia (FEA)","id":"flag-europe-asia-fea"},{"cable_id":1692,"name":"Guam Okinawa Kyushu Incheon (GOKI)","id":"guam-okinawa-kyushu-incheon-goki"},{"cable_id":1031,"name":"SeaMeWe-3","id":"seamewe-3"},{"cable_id":1146,"name":"China-U.S. Cable Network (CHUS)","id":"china-u-s-cable-network-chus"},{"cable_id":1102,"name":"Australia-Japan Cable (AJC)","id":"australia-japan-cable-ajc"},{"cable_id":1049,"name":"APCN-2","id":"apcn-2"},{"cable_id":1150,"name":"FLAG North Asia Loop/REACH North Asia Loop","id":"flag-north-asia-loopreach-north-asia-loop"},{"cable_id":1155,"name":"Tata TGN-Pacific","id":"tata-tgn-pacific"},{"cable_id":1231,"name":"Korea-Japan Cable Network (KJCN)","id":"korea-japan-cable-network-kjcn"},{"cable_id":1528,"name":"Hokkaido-Sakhalin Cable System (HSCS)","id":"hokkaido-sakhalin-cable-system-hscs"},{"cable_id":1518,"name":"Russia-Japan Cable Network (RJCN)","id":"russia-japan-cable-network-rjcn"},{"cable_id":1525,"name":"Unity/EAC-Pacific","id":"unityeac-pacific"},{"cable_id":1513,"name":"Trans-Pacific Express (TPE) Cable System","id":"trans-pacific-express-tpe-cable-system"},{"cable_id":1592,"name":"EAC-C2C","id":"eac-c2c"},{"cable_id":1604,"name":"Southeast Asia Japan Cable (SJC) ","id":"southeast-asia-japan-cable-sjc"}],"landing_points":[{"name":"Shima, Japan","landing_point_id":5883,"id":"shima-japan"},{"name":"Ajigaura, Japan","landing_point_id":5884,"id":"ajigaura-japan"},{"name":"Kitaibaraki, Japan","landing_point_id":5703,"id":"kitaibaraki-japan"},{"name":"Maruyama, Japan","landing_point_id":5887,"id":"maruyama-japan"},{"name":"Miura, Japan","landing_point_id":5889,"id":"miura-japan"},{"name":"Okinawa, Japan","landing_point_id":5886,"id":"okinawa-japan"},{"name":"Chikura, Japan","landing_point_id":5885,"id":"chikura-japan"},{"name":"Ninomiya, Japan","landing_point_id":5890,"id":"ninomiya-japan"},{"name":"Wada, Japan","landing_point_id":5892,"id":"wada-japan"},{"name":"Toyohashi, Japan","landing_point_id":5893,"id":"toyohashi-japan"},{"name":"Emi, Japan","landing_point_id":5894,"id":"emi-japan"},{"name":"Fukuoka, Japan","landing_point_id":4059,"id":"fukuoka-japan"},{"name":"Kita-kyushu, Japan","landing_point_id":5895,"id":"kita-kyushu-japan"},{"name":"Ishikari, Japan","landing_point_id":7834,"id":"ishikari-japan"},{"name":"Naoetsu, Japan","landing_point_id":5529,"id":"naoetsu-japan"}],"name":"Japan"}
