{"landing_points":[{"landing_point_id":5883,"name":"Shima, Japan","id":"shima-japan"},{"landing_point_id":5884,"name":"Ajigaura, Japan","id":"ajigaura-japan"},{"landing_point_id":5703,"name":"Kitaibaraki, Japan","id":"kitaibaraki-japan"},{"landing_point_id":5887,"name":"Maruyama, Japan","id":"maruyama-japan"},{"landing_point_id":5889,"name":"Miura, Japan","id":"miura-japan"},{"landing_point_id":5886,"name":"Okinawa, Japan","id":"okinawa-japan"},{"landing_point_id":5885,"name":"Chikura, Japan","id":"chikura-japan"},{"landing_point_id":5890,"name":"Ninomiya, Japan","id":"ninomiya-japan"},{"landing_point_id":5892,"name":"Wada, Japan","id":"wada-japan"},{"landing_point_id":5893,"name":"Toyohashi, Japan","id":"toyohashi-japan"},{"landing_point_id":5894,"name":"Emi, Japan","id":"emi-japan"},{"landing_point_id":4059,"name":"Fukuoka, Japan","id":"fukuoka-japan"},{"landing_point_id":5895,"name":"Kita-kyushu, Japan","id":"kita-kyushu-japan"},{"landing_point_id":7834,"name":"Ishikari, Japan","id":"ishikari-japan"},{"landing_point_id":5529,"name":"Naoetsu, Japan","id":"naoetsu-japan"}],"cables":[{"name":"FASTER","id":"faster","cable_id":1794},{"name":"Asia Pacific Gateway (APG)","id":"asia-pacific-gateway-apg","cable_id":1617},{"name":"Pacific Crossing-1 (PC-1)","id":"pacific-crossing-1-pc-1","cable_id":1007},{"name":"Japan-U.S. Cable Network (JUS)","id":"japan-u-s-cable-network-jus","cable_id":1010},{"name":"New Cross Pacific (NCP) Cable System","id":"new-cross-pacific-ncp-cable-system","cable_id":1786},{"name":"Asia Submarine-cable Express (ASE)/Cahaya Malaysia","id":"asia-submarine-cable-express-asecahaya-malaysia","cable_id":1679},{"name":"FLAG Europe-Asia (FEA)","id":"flag-europe-asia-fea","cable_id":1027},{"name":"Guam Okinawa Kyushu Incheon (GOKI)","id":"guam-okinawa-kyushu-incheon-goki","cable_id":1692},{"name":"SeaMeWe-3","id":"seamewe-3","cable_id":1031},{"name":"Australia-Japan Cable (AJC)","id":"australia-japan-cable-ajc","cable_id":1102},{"name":"APCN-2","id":"apcn-2","cable_id":1049},{"name":"FLAG North Asia Loop/REACH North Asia Loop","id":"flag-north-asia-loopreach-north-asia-loop","cable_id":1150},{"name":"Tata TGN-Pacific","id":"tata-tgn-pacific","cable_id":1155},{"name":"Korea-Japan Cable Network (KJCN)","id":"korea-japan-cable-network-kjcn","cable_id":1231},{"name":"Hokkaido-Sakhalin Cable System (HSCS)","id":"hokkaido-sakhalin-cable-system-hscs","cable_id":1528},{"name":"Russia-Japan Cable Network (RJCN)","id":"russia-japan-cable-network-rjcn","cable_id":1518},{"name":"Unity/EAC-Pacific","id":"unityeac-pacific","cable_id":1525},{"name":"Trans-Pacific Express (TPE) Cable System","id":"trans-pacific-express-tpe-cable-system","cable_id":1513},{"name":"EAC-C2C","id":"eac-c2c","cable_id":1592},{"name":"Southeast Asia Japan Cable (SJC) ","id":"southeast-asia-japan-cable-sjc","cable_id":1604}],"name":"Japan","latlon":[{"latlon":"34.336834,136.874380"},{"latlon":"36.383562,140.612268"},{"latlon":"36.801787,140.750940"},{"latlon":"35.037517,139.816956"},{"latlon":"35.144036,139.620667"},{"latlon":"26.212412,127.680561"},{"latlon":"34.976653,139.954652"},{"latlon":"35.299443,139.255433"},{"latlon":"35.035845,140.016761"},{"latlon":"34.769060,137.391567"},{"latlon":"35.062383,140.061097"},{"latlon":"33.590301,130.401653"},{"latlon":"33.839276,131.032024"},{"latlon":"43.171180,141.315393"},{"latlon":"37.169743,138.242152"}]}
