{"latlon":[{"latlon":"34.336772,136.874423"},{"latlon":"36.383558,140.612324"},{"latlon":"36.801769,140.750958"},{"latlon":"35.037472,139.816960"},{"latlon":"35.144082,139.620703"},{"latlon":"26.212373,127.680604"},{"latlon":"34.976637,139.954690"},{"latlon":"35.299381,139.255396"},{"latlon":"35.035866,140.016729"},{"latlon":"34.769038,137.391515"},{"latlon":"35.062368,140.061100"},{"latlon":"33.590296,130.401687"},{"latlon":"33.839256,131.032015"},{"latlon":"43.171207,141.315432"},{"latlon":"37.169686,138.242092"}],"landing_points":[{"name":"Shima, Japan","landing_point_id":5883,"id":"shima-japan"},{"name":"Ajigaura, Japan","landing_point_id":5884,"id":"ajigaura-japan"},{"name":"Kitaibaraki, Japan","landing_point_id":5703,"id":"kitaibaraki-japan"},{"name":"Maruyama, Japan","landing_point_id":5887,"id":"maruyama-japan"},{"name":"Miura, Japan","landing_point_id":5889,"id":"miura-japan"},{"name":"Okinawa, Japan","landing_point_id":5886,"id":"okinawa-japan"},{"name":"Chikura, Japan","landing_point_id":5885,"id":"chikura-japan"},{"name":"Ninomiya, Japan","landing_point_id":5890,"id":"ninomiya-japan"},{"name":"Wada, Japan","landing_point_id":5892,"id":"wada-japan"},{"name":"Toyohashi, Japan","landing_point_id":5893,"id":"toyohashi-japan"},{"name":"Emi, Japan","landing_point_id":5894,"id":"emi-japan"},{"name":"Fukuoka, Japan","landing_point_id":4059,"id":"fukuoka-japan"},{"name":"Kita-kyushu, Japan","landing_point_id":5895,"id":"kita-kyushu-japan"},{"name":"Ishikari, Japan","landing_point_id":7834,"id":"ishikari-japan"},{"name":"Naoetsu, Japan","landing_point_id":5529,"id":"naoetsu-japan"}],"cables":[{"name":"Asia Pacific Gateway (APG)","cable_id":1617,"id":"asia-pacific-gateway-apg"},{"name":"Pacific Crossing-1 (PC-1)","cable_id":1007,"id":"pacific-crossing-1-pc-1"},{"name":"Japan-U.S. Cable Network (JUS)","cable_id":1010,"id":"japan-u-s-cable-network-jus"},{"name":"Arctic Fibre","cable_id":1712,"id":"arctic-fibre"},{"name":"Asia Submarine-cable Express (ASE)/Cahaya Malaysia","cable_id":1679,"id":"asia-submarine-cable-express-asecahaya-malaysia"},{"name":"FLAG Europe-Asia (FEA)","cable_id":1027,"id":"flag-europe-asia-fea"},{"name":"Guam Okinawa Kyushu Incheon (GOKI)","cable_id":1692,"id":"guam-okinawa-kyushu-incheon-goki"},{"name":"SeaMeWe-3","cable_id":1031,"id":"seamewe-3"},{"name":"China-U.S. Cable Network (CHUS)","cable_id":1146,"id":"china-u-s-cable-network-chus"},{"name":"Australia-Japan Cable (AJC)","cable_id":1102,"id":"australia-japan-cable-ajc"},{"name":"APCN-2","cable_id":1049,"id":"apcn-2"},{"name":"FLAG North Asia Loop/REACH North Asia Loop","cable_id":1150,"id":"flag-north-asia-loopreach-north-asia-loop"},{"name":"Tata TGN-Pacific","cable_id":1155,"id":"tata-tgn-pacific"},{"name":"Russian Optical Trans-Arctic Cable System (ROTACS)","cable_id":1244,"id":"russian-optical-trans-arctic-cable-system-rotacs"},{"name":"Korea-Japan Cable Network (KJCN)","cable_id":1231,"id":"korea-japan-cable-network-kjcn"},{"name":"Hokkaido-Sakhalin Cable System (HSCS)","cable_id":1528,"id":"hokkaido-sakhalin-cable-system-hscs"},{"name":"Russia-Japan Cable Network (RJCN)","cable_id":1518,"id":"russia-japan-cable-network-rjcn"},{"name":"Unity/EAC-Pacific","cable_id":1525,"id":"unityeac-pacific"},{"name":"Trans-Pacific Express (TPE) Cable System","cable_id":1513,"id":"trans-pacific-express-tpe-cable-system"},{"name":"EAC-C2C","cable_id":1592,"id":"eac-c2c"},{"name":"Southeast Asia Japan Cable (SJC) ","cable_id":1604,"id":"southeast-asia-japan-cable-sjc"}],"name":"Japan"}
