{"latlon":[{"latlon":"25.616979,56.258046"},{"latlon":"23.615167,58.591033"},{"latlon":"23.684634,58.176135"},{"latlon":"26.181353,56.246802"},{"latlon":"23.679414,58.004373"}],"landing_points":[{"name":"Diba, Oman","landing_point_id":10579,"id":"diba-oman"},{"name":"Muscat, Oman","landing_point_id":4225,"id":"muscat-oman"},{"name":"Al Seeb, Oman","landing_point_id":7646,"id":"al-seeb-oman"},{"name":"Khasab, Oman","landing_point_id":7645,"id":"khasab-oman"},{"name":"Barka, Oman","landing_point_id":8947,"id":"barka-oman"},{"name":"Qalhat, Oman","landing_point_id":10684,"id":"qalhat-oman"}],"cables":[{"name":"OMRAN/EPEG Cable System","cable_id":1695,"id":"omranepeg-cable-system"},{"name":"SeaMeWe-3","cable_id":1031,"id":"seamewe-3"},{"name":"FLAG FALCON","cable_id":1346,"id":"flag-falcon"},{"name":"Transworld (TW1)","cable_id":1351,"id":"transworld-tw1"},{"name":"Bay of Bengal Gateway (BBG)","cable_id":1735,"id":"bay-of-bengal-gateway-bbg"},{"name":"Pishgaman Oman Iran (POI) Network","cable_id":1689,"id":"pishgaman-oman-iran-poi-network"},{"name":"Europe India Gateway (EIG)","cable_id":1580,"id":"europe-india-gateway-eig"},{"name":"Middle East North Africa (MENA) Cable System/Gulf Bridge International","cable_id":1558,"id":"middle-east-north-africa-mena-cable-systemgulf-bridge-international"},{"name":"Gulf Bridge International Cable System (GBICS)/Middle East North Africa (MENA) Cable System","cable_id":1598,"id":"gulf-bridge-international-cable-system-gbicsmiddle-east-north-africa-mena-cable-system"},{"name":"Tata TGN-Gulf","cable_id":1631,"id":"tata-tgn-gulf"}],"name":"Oman"}
