{"latlon":[{"latlon":"23.576073,58.606106"},{"latlon":"25.616990,56.258061"},{"latlon":"23.615135,58.591067"},{"latlon":"23.684666,58.176126"},{"latlon":"26.181345,56.246830"},{"latlon":"23.679393,58.004349"}],"landing_points":[{"landing_point_id":15019,"name":"Al Bustan, Oman","id":"al-bustan-oman"},{"landing_point_id":10579,"name":"Diba, Oman","id":"diba-oman"},{"landing_point_id":4225,"name":"Muscat, Oman","id":"muscat-oman"},{"landing_point_id":7646,"name":"Al Seeb, Oman","id":"al-seeb-oman"},{"landing_point_id":7645,"name":"Khasab, Oman","id":"khasab-oman"},{"landing_point_id":8947,"name":"Barka, Oman","id":"barka-oman"},{"landing_point_id":10684,"name":"Qalhat, Oman","id":"qalhat-oman"}],"name":"Oman","cables":[{"cable_id":1739,"name":"Asia Africa Europe-1 (AAE-1)","id":"asia-africa-europe-1-aae-1"},{"cable_id":1695,"name":"OMRAN/EPEG Cable System","id":"omranepeg-cable-system"},{"cable_id":1031,"name":"SeaMeWe-3","id":"seamewe-3"},{"cable_id":1346,"name":"FLAG FALCON","id":"flag-falcon"},{"cable_id":1351,"name":"Transworld (TW1)","id":"transworld-tw1"},{"cable_id":1559,"name":"SeaMeWe-5","id":"seamewe-5"},{"cable_id":1735,"name":"Bay of Bengal Gateway (BBG)","id":"bay-of-bengal-gateway-bbg"},{"cable_id":1689,"name":"Pishgaman Oman Iran (POI) Network","id":"pishgaman-oman-iran-poi-network"},{"cable_id":1580,"name":"Europe India Gateway (EIG)","id":"europe-india-gateway-eig"},{"cable_id":1558,"name":"Middle East North Africa (MENA) Cable System/Gulf Bridge International","id":"middle-east-north-africa-mena-cable-systemgulf-bridge-international"},{"cable_id":1598,"name":"Gulf Bridge International Cable System (GBICS)/Middle East North Africa (MENA) Cable System","id":"gulf-bridge-international-cable-system-gbicsmiddle-east-north-africa-mena-cable-system"},{"cable_id":1631,"name":"Tata TGN-Gulf","id":"tata-tgn-gulf"}]}
