{"landing_points":[{"landing_point_id":5924,"name":"Salalah, Oman","id":"salalah-oman"},{"landing_point_id":15019,"name":"Al Bustan, Oman","id":"al-bustan-oman"},{"landing_point_id":10579,"name":"Diba, Oman","id":"diba-oman"},{"landing_point_id":4225,"name":"Muscat, Oman","id":"muscat-oman"},{"landing_point_id":7646,"name":"Al Seeb, Oman","id":"al-seeb-oman"},{"landing_point_id":7645,"name":"Khasab, Oman","id":"khasab-oman"},{"landing_point_id":8947,"name":"Barka, Oman","id":"barka-oman"},{"landing_point_id":10684,"name":"Qalhat, Oman","id":"qalhat-oman"}],"cables":[{"name":"Gulf2Africa (G2A)","id":"gulf2africa-g2a","cable_id":1850},{"name":"Asia Africa Europe-1 (AAE-1)","id":"asia-africa-europe-1-aae-1","cable_id":1739},{"name":"OMRAN/EPEG Cable System","id":"omranepeg-cable-system","cable_id":1695},{"name":"Silk Route Gateway (SRG-1)","id":"silk-route-gateway-srg-1","cable_id":1849},{"name":"SeaMeWe-3","id":"seamewe-3","cable_id":1031},{"name":"FALCON","id":"falcon","cable_id":1346},{"name":"Transworld (TW1)","id":"transworld-tw1","cable_id":1351},{"name":"Bay of Bengal Gateway (BBG)","id":"bay-of-bengal-gateway-bbg","cable_id":1735},{"name":"Pishgaman Oman Iran (POI) Network","id":"pishgaman-oman-iran-poi-network","cable_id":1689},{"name":"Europe India Gateway (EIG)","id":"europe-india-gateway-eig","cable_id":1580},{"name":"Middle East North Africa (MENA) Cable System/Gulf Bridge International","id":"middle-east-north-africa-mena-cable-systemgulf-bridge-international","cable_id":1558},{"name":"Gulf Bridge International Cable System (GBICS)/Middle East North Africa (MENA) Cable System","id":"gulf-bridge-international-cable-system-gbicsmiddle-east-north-africa-mena-cable-system","cable_id":1598},{"name":"SeaMeWe-5","id":"seamewe-5","cable_id":1559},{"name":"Tata TGN-Gulf","id":"tata-tgn-gulf","cable_id":1631}],"name":"Oman","latlon":[{"latlon":"17.095827,54.148076"},{"latlon":"23.576085,58.606082"},{"latlon":"25.616977,56.258036"},{"latlon":"23.615098,58.591043"},{"latlon":"23.684703,58.176102"},{"latlon":"26.181308,56.246806"},{"latlon":"23.679429,58.004324"}]}
