{"latlon":[{"latlon":"24.863576,121.801454"},{"latlon":"22.249204,120.662165"},{"latlon":"25.181300,121.462649"},{"latlon":"25.149980,121.383243"},{"latlon":"24.476184,118.307092"},{"latlon":"24.455605,118.289825"}],"landing_points":[{"landing_point_id":5981,"name":"Toucheng, Taiwan","id":"toucheng-taiwan"},{"landing_point_id":5980,"name":"Fangshan, Taiwan","id":"fangshan-taiwan"},{"landing_point_id":5982,"name":"Tanshui, Taiwan","id":"tanshui-taiwan"},{"landing_point_id":5983,"name":"Pa Li, Taiwan","id":"pa-li-taiwan"},{"landing_point_id":10366,"name":"Guningtou, Taiwan","id":"guningtou-taiwan"},{"landing_point_id":10367,"name":"Lake Ci, Taiwan","id":"lake-ci-taiwan"}],"name":"Taiwan","cables":[{"cable_id":1617,"name":"Asia Pacific Gateway (APG)","id":"asia-pacific-gateway-apg"},{"cable_id":1031,"name":"SeaMeWe-3","id":"seamewe-3"},{"cable_id":1146,"name":"China-U.S. Cable Network (CHUS)","id":"china-u-s-cable-network-chus"},{"cable_id":1150,"name":"FLAG North Asia Loop/REACH North Asia Loop","id":"flag-north-asia-loopreach-north-asia-loop"},{"cable_id":1049,"name":"APCN-2","id":"apcn-2"},{"cable_id":1636,"name":"Taiwan Strait Express-1 (TSE)-1","id":"taiwan-strait-express-1-tse-1"},{"cable_id":1513,"name":"Trans-Pacific Express (TPE) Cable System","id":"trans-pacific-express-tpe-cable-system"},{"cable_id":1592,"name":"EAC-C2C","id":"eac-c2c"},{"cable_id":1632,"name":"Xiamen-Kinmen Undersea Cable","id":"xiamen-kinmen-undersea-cable"}]}
