{"latlon":[{"latlon":"24.863576,121.801454"},{"latlon":"22.249204,120.662165"},{"latlon":"25.181300,121.462649"},{"latlon":"25.149980,121.383243"},{"latlon":"24.476184,118.307092"},{"latlon":"24.455605,118.289825"}],"landing_points":[{"name":"Toucheng, Taiwan","landing_point_id":5981,"id":"toucheng-taiwan"},{"name":"Fangshan, Taiwan","landing_point_id":5980,"id":"fangshan-taiwan"},{"name":"Tanshui, Taiwan","landing_point_id":5982,"id":"tanshui-taiwan"},{"name":"Pa Li, Taiwan","landing_point_id":5983,"id":"pa-li-taiwan"},{"name":"Guningtou, Taiwan","landing_point_id":10366,"id":"guningtou-taiwan"},{"name":"Lake Ci, Taiwan","landing_point_id":10367,"id":"lake-ci-taiwan"}],"cables":[{"name":"Asia Pacific Gateway (APG)","cable_id":1617,"id":"asia-pacific-gateway-apg"},{"name":"SeaMeWe-3","cable_id":1031,"id":"seamewe-3"},{"name":"China-U.S. Cable Network (CHUS)","cable_id":1146,"id":"china-u-s-cable-network-chus"},{"name":"FLAG North Asia Loop/REACH North Asia Loop","cable_id":1150,"id":"flag-north-asia-loopreach-north-asia-loop"},{"name":"APCN-2","cable_id":1049,"id":"apcn-2"},{"name":"Taiwan Strait Express-1 (TSE)-1","cable_id":1636,"id":"taiwan-strait-express-1-tse-1"},{"name":"Trans-Pacific Express (TPE) Cable System","cable_id":1513,"id":"trans-pacific-express-tpe-cable-system"},{"name":"EAC-C2C","cable_id":1592,"id":"eac-c2c"},{"name":"Xiamen-Kinmen Undersea Cable","cable_id":1632,"id":"xiamen-kinmen-undersea-cable"}],"name":"Taiwan"}
