{"landing_points":[{"landing_point_id":5981,"name":"Toucheng, Taiwan","id":"toucheng-taiwan"},{"landing_point_id":5980,"name":"Fangshan, Taiwan","id":"fangshan-taiwan"},{"landing_point_id":5982,"name":"Tanshui, Taiwan","id":"tanshui-taiwan"},{"landing_point_id":5983,"name":"Pa Li, Taiwan","id":"pa-li-taiwan"},{"landing_point_id":10366,"name":"Guningtou, Taiwan","id":"guningtou-taiwan"},{"landing_point_id":10367,"name":"Lake Ci, Taiwan","id":"lake-ci-taiwan"}],"cables":[{"name":"New Cross Pacific (NCP) Cable System","id":"new-cross-pacific-ncp-cable-system","cable_id":1786},{"name":"Asia Pacific Gateway (APG)","id":"asia-pacific-gateway-apg","cable_id":1617},{"name":"SeaMeWe-3","id":"seamewe-3","cable_id":1031},{"name":"FLAG North Asia Loop/REACH North Asia Loop","id":"flag-north-asia-loopreach-north-asia-loop","cable_id":1150},{"name":"FASTER","id":"faster","cable_id":1794},{"name":"APCN-2","id":"apcn-2","cable_id":1049},{"name":"Taiwan Strait Express-1 (TSE)-1","id":"taiwan-strait-express-1-tse-1","cable_id":1636},{"name":"Trans-Pacific Express (TPE) Cable System","id":"trans-pacific-express-tpe-cable-system","cable_id":1513},{"name":"EAC-C2C","id":"eac-c2c","cable_id":1592},{"name":"Cross Straits Cable Network","id":"cross-straits-cable-network","cable_id":1632}],"name":"Taiwan","latlon":[{"latlon":"24.863596,121.801462"},{"latlon":"22.249254,120.662107"},{"latlon":"25.181357,121.462595"},{"latlon":"25.149985,121.383200"},{"latlon":"24.476145,118.307128"},{"latlon":"24.455516,118.289745"}]}
