{"latlon":[{"latlon":"24.863596,121.801462"},{"latlon":"22.249254,120.662107"},{"latlon":"25.181357,121.462595"},{"latlon":"25.149985,121.383200"},{"latlon":"24.476145,118.307128"},{"latlon":"24.455516,118.289745"}],"cables":[{"cable_id":1786,"name":"New Cross Pacific (NCP) Cable System","id":"new-cross-pacific-ncp-cable-system"},{"cable_id":1617,"name":"Asia Pacific Gateway (APG)","id":"asia-pacific-gateway-apg"},{"cable_id":1031,"name":"SeaMeWe-3","id":"seamewe-3"},{"cable_id":1150,"name":"FLAG North Asia Loop/REACH North Asia Loop","id":"flag-north-asia-loopreach-north-asia-loop"},{"cable_id":1794,"name":"FASTER","id":"faster"},{"cable_id":1049,"name":"APCN-2","id":"apcn-2"},{"cable_id":1636,"name":"Taiwan Strait Express-1 (TSE)-1","id":"taiwan-strait-express-1-tse-1"},{"cable_id":1513,"name":"Trans-Pacific Express (TPE) Cable System","id":"trans-pacific-express-tpe-cable-system"},{"cable_id":1592,"name":"EAC-C2C","id":"eac-c2c"},{"cable_id":1632,"name":"Cross Straits Cable Network","id":"cross-straits-cable-network"}],"landing_points":[{"name":"Toucheng, Taiwan","landing_point_id":5981,"id":"toucheng-taiwan"},{"name":"Fangshan, Taiwan","landing_point_id":5980,"id":"fangshan-taiwan"},{"name":"Tanshui, Taiwan","landing_point_id":5982,"id":"tanshui-taiwan"},{"name":"Pa Li, Taiwan","landing_point_id":5983,"id":"pa-li-taiwan"},{"name":"Guningtou, Taiwan","landing_point_id":10366,"id":"guningtou-taiwan"},{"name":"Lake Ci, Taiwan","landing_point_id":10367,"id":"lake-ci-taiwan"}],"name":"Taiwan"}
