{"latlon":[{"latlon":"36.082297,35.999298"},{"latlon":"36.799962,34.633336"},{"latlon":"41.884149,27.985324"},{"latlon":"36.855275,28.253658"},{"latlon":"41.040599,28.986079"}],"landing_points":[{"name":"Samandag, Turkey","landing_point_id":10382,"id":"samandag-turkey"},{"name":"Mersin, Turkey","landing_point_id":9080,"id":"mersin-turkey"},{"name":"Igneada, Turkey","landing_point_id":6058,"id":"igneada-turkey"},{"name":"Marmaris, Turkey","landing_point_id":5959,"id":"marmaris-turkey"},{"name":"Istanbul, Turkey","landing_point_id":3221,"id":"istanbul-turkey"}],"cables":[{"name":"Turcyos-2","cable_id":1705,"id":"turcyos-2"},{"name":"Turcyos-1","cable_id":1341,"id":"turcyos-1"},{"name":"KAFOS","cable_id":1333,"id":"kafos"},{"name":"SeaMeWe-3","cable_id":1031,"id":"seamewe-3"},{"name":"ITUR","cable_id":1300,"id":"itur"},{"name":"MedNautilus Submarine System","cable_id":1185,"id":"mednautilus-submarine-system"}],"name":"Turkey"}
