{"latlon":[{"latlon":"36.082317,35.999281"},{"latlon":"36.799992,34.633364"},{"latlon":"41.884169,27.985320"},{"latlon":"36.855265,28.253679"},{"latlon":"41.040615,28.986101"}],"landing_points":[{"landing_point_id":10382,"name":"Samandag, Turkey","id":"samandag-turkey"},{"landing_point_id":9080,"name":"Mersin, Turkey","id":"mersin-turkey"},{"landing_point_id":6058,"name":"Igneada, Turkey","id":"igneada-turkey"},{"landing_point_id":5959,"name":"Marmaris, Turkey","id":"marmaris-turkey"},{"landing_point_id":3221,"name":"Istanbul, Turkey","id":"istanbul-turkey"}],"name":"Turkey","cables":[{"cable_id":1705,"name":"Turcyos-2","id":"turcyos-2"},{"cable_id":1341,"name":"Turcyos-1","id":"turcyos-1"},{"cable_id":1333,"name":"KAFOS","id":"kafos"},{"cable_id":1031,"name":"SeaMeWe-3","id":"seamewe-3"},{"cable_id":1185,"name":"MedNautilus Submarine System","id":"mednautilus-submarine-system"}]}
