{"latlon":[{"latlon":"36.082297,35.999298"},{"latlon":"36.799962,34.633336"},{"latlon":"41.884149,27.985324"},{"latlon":"36.855275,28.253658"},{"latlon":"41.040599,28.986079"}],"landing_points":[{"landing_point_id":10382,"name":"Samandag, Turkey","id":"samandag-turkey"},{"landing_point_id":9080,"name":"Mersin, Turkey","id":"mersin-turkey"},{"landing_point_id":6058,"name":"Igneada, Turkey","id":"igneada-turkey"},{"landing_point_id":5959,"name":"Marmaris, Turkey","id":"marmaris-turkey"},{"landing_point_id":3221,"name":"Istanbul, Turkey","id":"istanbul-turkey"}],"name":"Turkey","cables":[{"cable_id":1705,"name":"Turcyos-2","id":"turcyos-2"},{"cable_id":1341,"name":"Turcyos-1","id":"turcyos-1"},{"cable_id":1333,"name":"KAFOS","id":"kafos"},{"cable_id":1031,"name":"SeaMeWe-3","id":"seamewe-3"},{"cable_id":1300,"name":"ITUR","id":"itur"},{"cable_id":1185,"name":"MedNautilus Submarine System","id":"mednautilus-submarine-system"}]}
