{"notes":null,"url":"http://www.alaskaunited.com","length":"626 km","cable_id":1567,"landing_points":[{"url":"#/landing-point/angoon-alaska-united-states","landing_point_id":8553,"latlon":"57.501816,-134.582274","name":"Angoon, Alaska, United States","id":"angoon-alaska-united-states"},{"url":"#/landing-point/hawk-inlet-alaska-united-states","landing_point_id":8552,"latlon":"58.128129,-134.741789","name":"Hawk Inlet, Alaska, United States","id":"hawk-inlet-alaska-united-states"},{"url":"#/landing-point/juneau-alaska-united-states","landing_point_id":4816,"latlon":"58.299490,-134.406848","name":"Juneau, Alaska, United States","id":"juneau-alaska-united-states"},{"url":"#/landing-point/ketchikan-alaska-united-states","landing_point_id":8551,"latlon":"55.341895,-131.647819","name":"Ketchikan, Alaska, United States","id":"ketchikan-alaska-united-states"},{"url":"#/landing-point/petersburg-alaska-united-states","landing_point_id":8550,"latlon":"56.807642,-132.970063","name":"Petersburg, Alaska, United States","id":"petersburg-alaska-united-states"},{"url":"#/landing-point/sitka-alaska-united-states","landing_point_id":8554,"latlon":"57.052887,-135.334372","name":"Sitka, Alaska, United States","id":"sitka-alaska-united-states"},{"url":"#/landing-point/wrangell-alaska-united-states","landing_point_id":8549,"latlon":"56.470744,-132.383805","name":"Wrangell, Alaska, United States","id":"wrangell-alaska-united-states"}],"rfs":"November 2008","name":"Alaska United Southeast","owners":"GCI","id":"alaska-united-southeast"}
