{"landing_points":[{"url":"#/landing-point/angoon-alaska-united-states","name":"Angoon, Alaska, United States","landing_point_id":8553,"id":"angoon-alaska-united-states","latlon":"57.501838,-134.582278"},{"url":"#/landing-point/hawk-inlet-alaska-united-states","name":"Hawk Inlet, Alaska, United States","landing_point_id":8552,"id":"hawk-inlet-alaska-united-states","latlon":"58.128107,-134.741848"},{"url":"#/landing-point/juneau-alaska-united-states","name":"Juneau, Alaska, United States","landing_point_id":4816,"id":"juneau-alaska-united-states","latlon":"58.299494,-134.406887"},{"url":"#/landing-point/ketchikan-alaska-united-states","name":"Ketchikan, Alaska, United States","landing_point_id":8551,"id":"ketchikan-alaska-united-states","latlon":"55.341878,-131.647807"},{"url":"#/landing-point/petersburg-alaska-united-states","name":"Petersburg, Alaska, United States","landing_point_id":8550,"id":"petersburg-alaska-united-states","latlon":"56.807600,-132.970072"},{"url":"#/landing-point/sitka-alaska-united-states","name":"Sitka, Alaska, United States","landing_point_id":8554,"id":"sitka-alaska-united-states","latlon":"57.052912,-135.334426"},{"url":"#/landing-point/wrangell-alaska-united-states","name":"Wrangell, Alaska, United States","landing_point_id":8549,"id":"wrangell-alaska-united-states","latlon":"56.470783,-132.383842"}],"rfs":"November 2008","length":"626 km","owners":"GCI","cable_id":1567,"notes":null,"url":"http://www.alaskaunited.com","name":"Alaska United Southeast","id":"alaska-united-southeast"}
