{"landing_points":[{"latlon":"57.501816,-134.582274","url":"#/landing-point/angoon-alaska-united-states","name":"Angoon, Alaska, United States","id":"angoon-alaska-united-states","landing_point_id":8553},{"latlon":"58.128129,-134.741789","url":"#/landing-point/hawk-inlet-alaska-united-states","name":"Hawk Inlet, Alaska, United States","id":"hawk-inlet-alaska-united-states","landing_point_id":8552},{"latlon":"58.299490,-134.406848","url":"#/landing-point/juneau-alaska-united-states","name":"Juneau, Alaska, United States","id":"juneau-alaska-united-states","landing_point_id":4816},{"latlon":"55.341895,-131.647819","url":"#/landing-point/ketchikan-alaska-united-states","name":"Ketchikan, Alaska, United States","id":"ketchikan-alaska-united-states","landing_point_id":8551},{"latlon":"56.807642,-132.970063","url":"#/landing-point/petersburg-alaska-united-states","name":"Petersburg, Alaska, United States","id":"petersburg-alaska-united-states","landing_point_id":8550},{"latlon":"57.052887,-135.334372","url":"#/landing-point/sitka-alaska-united-states","name":"Sitka, Alaska, United States","id":"sitka-alaska-united-states","landing_point_id":8554},{"latlon":"56.470744,-132.383805","url":"#/landing-point/wrangell-alaska-united-states","name":"Wrangell, Alaska, United States","id":"wrangell-alaska-united-states","landing_point_id":8549}],"length":"626 km","rfs":"November 2008","owners":"GCI","url":"http://www.alaskaunited.com","notes":null,"name":"Alaska United Southeast","cable_id":1567,"id":"alaska-united-southeast"}
