{"notes":null,"url":"http://www.alaskaunited.com","length":"626 km","cable_id":1567,"landing_points":[{"url":"#/landing-point/angoon-alaska-united-states","landing_point_id":8553,"latlon":"57.501838,-134.582278","name":"Angoon, Alaska, United States","id":"angoon-alaska-united-states"},{"url":"#/landing-point/hawk-inlet-alaska-united-states","landing_point_id":8552,"latlon":"58.128107,-134.741848","name":"Hawk Inlet, Alaska, United States","id":"hawk-inlet-alaska-united-states"},{"url":"#/landing-point/petersburg-alaska-united-states","landing_point_id":8550,"latlon":"56.807600,-132.970072","name":"Petersburg, Alaska, United States","id":"petersburg-alaska-united-states"},{"url":"#/landing-point/sitka-alaska-united-states","landing_point_id":8554,"latlon":"57.052912,-135.334426","name":"Sitka, Alaska, United States","id":"sitka-alaska-united-states"},{"url":"#/landing-point/wrangell-alaska-united-states","landing_point_id":8549,"latlon":"56.470783,-132.383842","name":"Wrangell, Alaska, United States","id":"wrangell-alaska-united-states"}],"rfs":"November 2008","name":"Alaska United Southeast","id":"alaska-united-southeast","owners":"GCI"}
