{"landing_points":[{"latlon":"57.501838,-134.582254","url":"#/landing-point/angoon-alaska-united-states","name":"Angoon, Alaska, United States","id":"angoon-alaska-united-states","landing_point_id":8553},{"latlon":"58.128107,-134.741824","url":"#/landing-point/hawk-inlet-alaska-united-states","name":"Hawk Inlet, Alaska, United States","id":"hawk-inlet-alaska-united-states","landing_point_id":8552},{"latlon":"56.807612,-132.970044","url":"#/landing-point/petersburg-alaska-united-states","name":"Petersburg, Alaska, United States","id":"petersburg-alaska-united-states","landing_point_id":8550},{"latlon":"57.052912,-135.334402","url":"#/landing-point/sitka-alaska-united-states","name":"Sitka, Alaska, United States","id":"sitka-alaska-united-states","landing_point_id":8554},{"latlon":"56.470796,-132.383814","url":"#/landing-point/wrangell-alaska-united-states","name":"Wrangell, Alaska, United States","id":"wrangell-alaska-united-states","landing_point_id":8549}],"length":"626 km","rfs":"November 2008","cable_id":1567,"owners":"GCI","notes":null,"url":"http://www.alaskaunited.com","name":"Alaska United Southeast","id":"alaska-united-southeast"}
