{"landing_points":[{"url":"#/landing-point/changi-north-singapore","name":"Changi North, Singapore","landing_point_id":5940,"id":"changi-north-singapore","latlon":"1.389071,103.987042"},{"url":"#/landing-point/currimao-philippines","name":"Currimao, Philippines","landing_point_id":8536,"id":"currimao-philippines","latlon":"16.582814,120.389768"},{"url":"#/landing-point/keawaula-hawaii-united-states","name":"Keawaula, Hawaii, United States","landing_point_id":5754,"id":"keawaula-hawaii-united-states","latlon":"21.425683,-158.151700"},{"url":"#/landing-point/lantau-island-hong-kong","name":"Lantau Island, Hong Kong","landing_point_id":5852,"id":"lantau-island-hong-kong","latlon":"22.271483,113.948365"},{"url":"#/landing-point/mersing-malaysia","name":"Mersing, Malaysia","landing_point_id":5902,"id":"mersing-malaysia","latlon":"2.295516,103.849932"},{"url":"#/landing-point/san-luis-obispo-california-united-states","name":"San Luis Obispo, California, United States","landing_point_id":3772,"id":"san-luis-obispo-california-united-states","latlon":"35.285051,-120.662753"},{"url":"#/landing-point/sri-racha-thailand","name":"Sri Racha, Thailand","landing_point_id":6014,"id":"sri-racha-thailand","latlon":"13.174320,100.930598"},{"url":"#/landing-point/tanguisson-point-guam","name":"Tanguisson Point, Guam","landing_point_id":3251,"id":"tanguisson-point-guam","latlon":"13.549124,144.809288"},{"url":"#/landing-point/tungku-brunei","name":"Tungku, Brunei","landing_point_id":5970,"id":"tungku-brunei","latlon":"4.926374,114.885865"},{"url":"#/landing-point/vung-tau-vietnam","name":"Vung Tau, Vietnam","landing_point_id":6013,"id":"vung-tau-vietnam","latlon":"10.341899,107.079228"}],"rfs":"November 2009","length":"20,000 km","owners":"Telekom Malaysia,  AT&T,  Starhub,  PLDT,  Communications Authority of Thailand,  Airtel (Bharti),  Telstra,  Telkom Indonesia,  BT,  Eastern Telecom,  PT Indonesia Satellite Corp.,  Telecom New Zealand,  Viettel Corporation,  Saigon Postel Corporation,  Vietnam Telecom International,  Brunei International Gateway,  BayanTel","cable_id":1507,"notes":null,"url":"http://www.asia-america-gateway.com","name":"Asia-America Gateway (AAG) Cable System","id":"asia-america-gateway-aag-cable-system"}
