{"landing_points":[{"latlon":"1.389047,103.987017","url":"#/landing-point/changi-north-singapore","name":"Changi North, Singapore","id":"changi-north-singapore","landing_point_id":5940},{"latlon":"21.425634,-158.151714","url":"#/landing-point/keawaula-hawaii-united-states","name":"Keawaula, Hawaii, United States","id":"keawaula-hawaii-united-states","landing_point_id":5754},{"latlon":"16.582594,120.389646","url":"#/landing-point/la-union-philippines","name":"La Union, Philippines","id":"la-union-philippines","landing_point_id":10340},{"latlon":"22.271496,113.948341","url":"#/landing-point/lantau-island-hong-kong","name":"Lantau Island, Hong Kong","id":"lantau-island-hong-kong","landing_point_id":5852},{"latlon":"2.295516,103.849908","url":"#/landing-point/mersing-malaysia","name":"Mersing, Malaysia","id":"mersing-malaysia","landing_point_id":5902},{"latlon":"35.285015,-120.662729","url":"#/landing-point/san-luis-obispo-california-united-states","name":"San Luis Obispo, California, United States","id":"san-luis-obispo-california-united-states","landing_point_id":3772},{"latlon":"13.174369,100.930574","url":"#/landing-point/sri-racha-thailand","name":"Sri Racha, Thailand","id":"sri-racha-thailand","landing_point_id":6014},{"latlon":"13.549100,144.809337","url":"#/landing-point/tanguisson-point-guam","name":"Tanguisson Point, Guam","id":"tanguisson-point-guam","landing_point_id":3251},{"latlon":"4.926374,114.885840","url":"#/landing-point/tungku-brunei","name":"Tungku, Brunei","id":"tungku-brunei","landing_point_id":5970},{"latlon":"10.341850,107.079203","url":"#/landing-point/vung-tau-vietnam","name":"Vung Tau, Vietnam","id":"vung-tau-vietnam","landing_point_id":6013}],"length":"20,000 km","rfs":"November 2009","cable_id":1507,"owners":"Telekom Malaysia,  AT&T,  Starhub,  PLDT,  Communications Authority of Thailand,  Airtel (Bharti),  Telstra,  Telkom Indonesia,  BT,  Eastern Telecom,  PT Indonesia Satellite Corp.,  Spark New Zealand,  Viettel Corporation,  Saigon Postel Corporation,  Vietnam Telecom International,  Brunei International Gateway,  BayanTel","notes":null,"url":"http://www.asia-america-gateway.com","name":"Asia-America Gateway (AAG) Cable System","id":"asia-america-gateway-aag-cable-system"}
