{"notes":null,"url":"http://www.asia-america-gateway.com","length":"20,000 km","cable_id":1507,"landing_points":[{"url":"#/landing-point/changi-north-singapore","landing_point_id":5940,"latlon":"1.389071,103.987042","name":"Changi North, Singapore","id":"changi-north-singapore"},{"url":"#/landing-point/currimao-philippines","landing_point_id":8536,"latlon":"16.582814,120.389768","name":"Currimao, Philippines","id":"currimao-philippines"},{"url":"#/landing-point/keawaula-hawaii-united-states","landing_point_id":5754,"latlon":"21.425683,-158.151700","name":"Keawaula, Hawaii, United States","id":"keawaula-hawaii-united-states"},{"url":"#/landing-point/lantau-island-hong-kong","landing_point_id":5852,"latlon":"22.271483,113.948365","name":"Lantau Island, Hong Kong","id":"lantau-island-hong-kong"},{"url":"#/landing-point/mersing-malaysia","landing_point_id":5902,"latlon":"2.295516,103.849932","name":"Mersing, Malaysia","id":"mersing-malaysia"},{"url":"#/landing-point/san-luis-obispo-california-united-states","landing_point_id":3772,"latlon":"35.285051,-120.662753","name":"San Luis Obispo, California, United States","id":"san-luis-obispo-california-united-states"},{"url":"#/landing-point/sri-racha-thailand","landing_point_id":6014,"latlon":"13.174320,100.930598","name":"Sri Racha, Thailand","id":"sri-racha-thailand"},{"url":"#/landing-point/tanguisson-point-guam","landing_point_id":3251,"latlon":"13.549124,144.809288","name":"Tanguisson Point, Guam","id":"tanguisson-point-guam"},{"url":"#/landing-point/tungku-brunei","landing_point_id":5970,"latlon":"4.926374,114.885865","name":"Tungku, Brunei","id":"tungku-brunei"},{"url":"#/landing-point/vung-tau-vietnam","landing_point_id":6013,"latlon":"10.341899,107.079228","name":"Vung Tau, Vietnam","id":"vung-tau-vietnam"}],"rfs":"November 2009","name":"Asia-America Gateway (AAG) Cable System","id":"asia-america-gateway-aag-cable-system","owners":"Telekom Malaysia,  AT&T,  Starhub,  PLDT,  Communications Authority of Thailand,  Airtel (Bharti),  Telstra,  Telkom Indonesia,  BT,  Eastern Telecom,  PT Indonesia Satellite Corp.,  Spark New Zealand,  Viettel Corporation,  Saigon Postel Corporation,  Vietnam Telecom International,  Brunei International Gateway,  BayanTel"}
