{"landing_points":[{"latlon":"1.389040,103.987023","url":"#/landing-point/changi-singapore","name":"Changi, Singapore","id":"changi-singapore","landing_point_id":5937},{"latlon":"16.582774,120.389715","url":"#/landing-point/currimao-philippines","name":"Currimao, Philippines","id":"currimao-philippines","landing_point_id":8536},{"latlon":"21.425732,-158.151726","url":"#/landing-point/keawaula-hawaii-united-states","name":"Keawaula, Hawaii, United States","id":"keawaula-hawaii-united-states","landing_point_id":5754},{"latlon":"22.271490,113.948400","url":"#/landing-point/lantau-island-hong-kong","name":"Lantau Island, Hong Kong","id":"lantau-island-hong-kong","landing_point_id":5852},{"latlon":"2.295532,103.849895","url":"#/landing-point/mersing-malaysia","name":"Mersing, Malaysia","id":"mersing-malaysia","landing_point_id":5902},{"latlon":"35.285025,-120.662699","url":"#/landing-point/san-luis-obispo-california-united-states","name":"San Luis Obispo, California, United States","id":"san-luis-obispo-california-united-states","landing_point_id":3772},{"latlon":"13.174444,100.930548","url":"#/landing-point/sri-racha-thailand","name":"Sri Racha, Thailand","id":"sri-racha-thailand","landing_point_id":6014},{"latlon":"13.549087,144.809393","url":"#/landing-point/tanguisson-point-guam","name":"Tanguisson Point, Guam","id":"tanguisson-point-guam","landing_point_id":3251},{"latlon":"4.926367,114.885811","url":"#/landing-point/tungku-brunei","name":"Tungku, Brunei","id":"tungku-brunei","landing_point_id":5970},{"latlon":"10.341931,107.079236","url":"#/landing-point/vung-tau-vietnam","name":"Vung Tau, Vietnam","id":"vung-tau-vietnam","landing_point_id":6013}],"length":"20,000 km","rfs":"November 2009","owners":"Telekom Malaysia,  AT&T,  Starhub,  PLDT,  Communications Authority of Thailand,  airtel (Bharti),  Telstra,  Telkom Indonesia,  BT,  Eastern Telecom,  PT Indonesia Satellite Corp.,  Telecom New Zealand,  Viettel Corporation,  Saigon Postal Corporation,  Vietnam Telecom International,  Brunei International Gateway,  BayanTel (BTI)","url":"http://www.asia-america-gateway.com","notes":null,"name":"Asia-America Gateway (AAG) Cable System","cable_id":1507,"id":"asia-america-gateway-aag-cable-system"}
