{"notes":null,"url":null,"length":"1,100 km","cable_id":1801,"landing_points":[{"url":"#/landing-point/angra-do-heroismo-portugal","landing_point_id":14836,"latlon":"38.658487,-27.215825","name":"Angra do Heroismo, Portugal","id":"angra-do-heroismo-portugal"},{"url":"#/landing-point/faial-portugal","landing_point_id":14659,"latlon":"38.525089,-28.647563","name":"Faial, Portugal","id":"faial-portugal"},{"url":"#/landing-point/graciosa-portugal","landing_point_id":14658,"latlon":"39.011026,-27.963481","name":"Graciosa, Portugal","id":"graciosa-portugal"},{"url":"#/landing-point/ponta-delgada-portugal","landing_point_id":5945,"latlon":"37.739249,-25.668756","name":"Ponta Delgada, Portugal","id":"ponta-delgada-portugal"},{"url":"#/landing-point/sao-mateus-portugal","landing_point_id":14834,"latlon":"38.432316,-28.461235","name":"Sao Mateus, Portugal","id":"sao-mateus-portugal"},{"url":"#/landing-point/velas-portugal","landing_point_id":14833,"latlon":"38.683878,-28.213188","name":"Velas, Portugal","id":"velas-portugal"},{"url":"#/landing-point/vila-do-porto-portugal","landing_point_id":14835,"latlon":"36.956730,-25.141266","name":"Vila do Porto, Portugal","id":"vila-do-porto-portugal"}],"rfs":"July 1998","name":"Azores Fiber Optic System (AFOS)","owners":"n.a.","id":"azores-fiber-optic-system-afos"}
