{"notes":null,"url":null,"length":"1,100 km","cable_id":1801,"landing_points":[{"url":"#/landing-point/angra-do-heroismo-portugal","landing_point_id":14836,"latlon":"38.658522,-27.215841","name":"Angra do Heroismo, Portugal","id":"angra-do-heroismo-portugal"},{"url":"#/landing-point/faial-portugal","landing_point_id":14659,"latlon":"38.525108,-28.647557","name":"Faial, Portugal","id":"faial-portugal"},{"url":"#/landing-point/graciosa-portugal","landing_point_id":14658,"latlon":"39.011080,-27.963471","name":"Graciosa, Portugal","id":"graciosa-portugal"},{"url":"#/landing-point/ponta-delgada-portugal","landing_point_id":5945,"latlon":"37.739281,-25.668781","name":"Ponta Delgada, Portugal","id":"ponta-delgada-portugal"},{"url":"#/landing-point/sao-mateus-portugal","landing_point_id":14834,"latlon":"38.432351,-28.461239","name":"Sao Mateus, Portugal","id":"sao-mateus-portugal"},{"url":"#/landing-point/velas-portugal","landing_point_id":14833,"latlon":"38.683920,-28.213183","name":"Velas, Portugal","id":"velas-portugal"},{"url":"#/landing-point/vila-do-porto-portugal","landing_point_id":14835,"latlon":"36.956766,-25.141248","name":"Vila do Porto, Portugal","id":"vila-do-porto-portugal"}],"rfs":"July 1998","name":"Azores Fiber Optic System (AFOS)","owners":"n.a.","id":"azores-fiber-optic-system-afos"}
