{"landing_points":[{"url":"#/landing-point/angra-do-heroismo-portugal","name":"Angra do Heroismo, Portugal","landing_point_id":14836,"id":"angra-do-heroismo-portugal","latlon":"38.658487,-27.215825"},{"url":"#/landing-point/faial-portugal","name":"Faial, Portugal","landing_point_id":14659,"id":"faial-portugal","latlon":"38.525089,-28.647563"},{"url":"#/landing-point/graciosa-portugal","name":"Graciosa, Portugal","landing_point_id":14658,"id":"graciosa-portugal","latlon":"39.011026,-27.963481"},{"url":"#/landing-point/ponta-delgada-portugal","name":"Ponta Delgada, Portugal","landing_point_id":5945,"id":"ponta-delgada-portugal","latlon":"37.739249,-25.668756"},{"url":"#/landing-point/sao-mateus-portugal","name":"Sao Mateus, Portugal","landing_point_id":14834,"id":"sao-mateus-portugal","latlon":"38.432316,-28.461235"},{"url":"#/landing-point/velas-portugal","name":"Velas, Portugal","landing_point_id":14833,"id":"velas-portugal","latlon":"38.683878,-28.213188"},{"url":"#/landing-point/vila-do-porto-portugal","name":"Vila do Porto, Portugal","landing_point_id":14835,"id":"vila-do-porto-portugal","latlon":"36.956730,-25.141266"}],"rfs":"July 1998","length":"1,100 km","owners":"Portugal Telecom","cable_id":1801,"notes":null,"url":null,"name":"Azores Fiber Optic System (AFOS)","id":"azores-fiber-optic-system-afos"}
