{"notes":null,"url":"http://www.bestcablecorp.com","length":"5,092 km","cable_id":1851,"landing_points":[{"url":"#/landing-point/kota-kinabalu-malaysia","landing_point_id":6009,"latlon":"5.981354,116.074341","name":"Kota Kinabalu, Malaysia","id":"kota-kinabalu-malaysia"},{"url":"#/landing-point/manado-indonesia","landing_point_id":15115,"latlon":"1.490732,124.839669","name":"Manado, Indonesia","id":"manado-indonesia"},{"url":"#/landing-point/north-tipalao-gu-united-states","landing_point_id":16370,"latlon":"13.419241,144.646007","name":"North Tipalao, GU, United States","id":"north-tipalao-gu-united-states"},{"url":"#/landing-point/parang-philippines","landing_point_id":16369,"latlon":"7.234088,124.312423","name":"Parang, Philippines","id":"parang-philippines"},{"url":"#/landing-point/samarinda-indonesia","landing_point_id":9725,"latlon":"-0.502236,117.153832","name":"Samarinda, Indonesia","id":"samarinda-indonesia"},{"url":"#/landing-point/tawau-malaysia","landing_point_id":16259,"latlon":"4.244636,117.891234","name":"Tawau, Malaysia","id":"tawau-malaysia"},{"url":"#/landing-point/tungku-brunei","landing_point_id":5970,"latlon":"4.926374,114.885865","name":"Tungku, Brunei","id":"tungku-brunei"}],"rfs":"Q1 2018","name":"BEST Cable","id":"best-cable","owners":"BEST Cable Corporation"}
