{"landing_points":[{"latlon":"5.981330,116.074316","url":"#/landing-point/kota-kinabalu-malaysia","name":"Kota Kinabalu, Malaysia","id":"kota-kinabalu-malaysia","landing_point_id":6009},{"latlon":"1.490780,124.839644","url":"#/landing-point/manado-indonesia","name":"Manado, Indonesia","id":"manado-indonesia","landing_point_id":15115},{"latlon":"13.419193,144.645958","url":"#/landing-point/north-tipalao-gu-united-states","name":"North Tipalao, GU, United States","id":"north-tipalao-gu-united-states","landing_point_id":16370},{"latlon":"7.234064,124.312398","url":"#/landing-point/parang-philippines","name":"Parang, Philippines","id":"parang-philippines","landing_point_id":16369},{"latlon":"-0.502212,117.153808","url":"#/landing-point/samarinda-indonesia","name":"Samarinda, Indonesia","id":"samarinda-indonesia","landing_point_id":9725},{"latlon":"4.244685,117.891210","url":"#/landing-point/tawau-malaysia","name":"Tawau, Malaysia","id":"tawau-malaysia","landing_point_id":16259},{"latlon":"4.926374,114.885840","url":"#/landing-point/tungku-brunei","name":"Tungku, Brunei","id":"tungku-brunei","landing_point_id":5970}],"length":"5,092 km","rfs":"Q1 2018","cable_id":1851,"owners":"BEST Cable Corporation","notes":null,"url":"http://www.bestcablecorp.com","name":"BEST Cable","id":"best-cable"}
