{"landing_points":[{"url":"#/landing-point/aracaj-brazil","name":"Aracajú, Brazil","landing_point_id":3356,"id":"aracaj-brazil","latlon":"-10.909604,-37.074805"},{"url":"#/landing-point/atafona-brazil","name":"Atafona, Brazil","landing_point_id":16690,"id":"atafona-brazil","latlon":"-21.631157,-41.027245"},{"url":"#/landing-point/ilhus-brazil","name":"Ilhéus, Brazil","landing_point_id":4590,"id":"ilhus-brazil","latlon":"-14.787972,-39.047704"},{"url":"#/landing-point/joo-pessoa-brazil","name":"João Pessoa, Brazil","landing_point_id":3351,"id":"joo-pessoa-brazil","latlon":"-7.115295,-34.861037"},{"url":"#/landing-point/maca-brazil","name":"Macaé, Brazil","landing_point_id":3387,"id":"maca-brazil","latlon":"-22.371806,-41.785643"},{"url":"#/landing-point/macei-brazil","name":"Maceió, Brazil","landing_point_id":3344,"id":"macei-brazil","latlon":"-9.666465,-35.734962"},{"url":"#/landing-point/natal-brazil","name":"Natal, Brazil","landing_point_id":3354,"id":"natal-brazil","latlon":"-5.794836,-35.211183"},{"url":"#/landing-point/porto-seguro-brazil","name":"Porto Seguro, Brazil","landing_point_id":5493,"id":"porto-seguro-brazil","latlon":"-16.451081,-39.064697"},{"url":"#/landing-point/recife-brazil","name":"Recife, Brazil","landing_point_id":3352,"id":"recife-brazil","latlon":"-8.055333,-34.871974"},{"url":"#/landing-point/rio-de-janeiro-brazil","name":"Rio de Janeiro, Brazil","landing_point_id":3242,"id":"rio-de-janeiro-brazil","latlon":"-22.903397,-43.209568"},{"url":"#/landing-point/salvador-brazil","name":"Salvador, Brazil","landing_point_id":3342,"id":"salvador-brazil","latlon":"-12.969979,-38.504541"},{"url":"#/landing-point/sitio-brazil","name":"Sitio, Brazil","landing_point_id":16689,"id":"sitio-brazil","latlon":"-11.846664,-37.570508"},{"url":"#/landing-point/so-mateus-brazil","name":"São Mateus, Brazil","landing_point_id":5506,"id":"so-mateus-brazil","latlon":"-18.716705,-39.859130"},{"url":"#/landing-point/vitria-brazil","name":"Vitória, Brazil","landing_point_id":3343,"id":"vitria-brazil","latlon":"-20.294024,-40.301659"}],"rfs":"1996","length":"2,543 km","owners":"Embratel","notes":null,"url":null,"name":"Brazilian Festoon","id":"brazilian-festoon","cable_id":1888}
