{"landing_points":[{"latlon":"36.383558,140.612324","url":"#/landing-point/ajigaura-japan","name":"Ajigaura, Japan","id":"ajigaura-japan","landing_point_id":5884},{"latlon":"13.765521,121.065017","url":"#/landing-point/batangas-philippines","name":"Batangas, Philippines","id":"batangas-philippines","landing_point_id":3218},{"latlon":"14.286227,120.820174","url":"#/landing-point/cavite-philippines","name":"Cavite, Philippines","id":"cavite-philippines","landing_point_id":5931},{"latlon":"1.389040,103.987023","url":"#/landing-point/changi-north-singapore","name":"Changi North, Singapore","id":"changi-north-singapore","landing_point_id":5940},{"latlon":"1.389040,103.987023","url":"#/landing-point/changi-south-singapore","name":"Changi South, Singapore","id":"changi-south-singapore","landing_point_id":5937},{"latlon":"34.976637,139.954690","url":"#/landing-point/chikura-japan","name":"Chikura, Japan","id":"chikura-japan","landing_point_id":5885},{"latlon":"22.222100,114.203081","url":"#/landing-point/chung-hom-kok-hong-kong","name":"Chung Hom Kok, Hong Kong","id":"chung-hom-kok-hong-kong","landing_point_id":5856},{"latlon":"22.249204,120.662165","url":"#/landing-point/fangshan-taiwan","name":"Fangshan, Taiwan","id":"fangshan-taiwan","landing_point_id":5980},{"latlon":"25.149980,121.383243","url":"#/landing-point/pa-li-taiwan","name":"Pa Li, Taiwan","id":"pa-li-taiwan","landing_point_id":5983},{"latlon":"35.170083,128.999384","url":"#/landing-point/pusan-korea-rep-","name":"Pusan, Korea, Rep.","id":"pusan-korea-rep-","landing_point_id":4183},{"latlon":"36.087115,120.342634","url":"#/landing-point/qingdao-china","name":"Qingdao, China","id":"qingdao-china","landing_point_id":6012},{"latlon":"31.247571,121.472487","url":"#/landing-point/shanghai-china","name":"Shanghai, China","id":"shanghai-china","landing_point_id":3246},{"latlon":"34.336772,136.874423","url":"#/landing-point/shima-japan","name":"Shima, Japan","id":"shima-japan","landing_point_id":5883},{"latlon":"36.576300,126.391638","url":"#/landing-point/shindu-ri-korea-rep-","name":"Shindu-Ri, Korea, Rep.","id":"shindu-ri-korea-rep-","landing_point_id":5977},{"latlon":"25.181300,121.462649","url":"#/landing-point/tanshui-taiwan","name":"Tanshui, Taiwan","id":"tanshui-taiwan","landing_point_id":5982},{"latlon":"22.318270,114.258695","url":"#/landing-point/tseung-kwan-o-hong-kong","name":"Tseung Kwan O, Hong Kong","id":"tseung-kwan-o-hong-kong","landing_point_id":5857}],"length":"36,500 km","rfs":"November 2002","owners":"Pacnet","url":"http://www.pacnet.com","notes":null,"name":"EAC-C2C","cable_id":1592,"id":"eac-c2c"}
