{"notes":null,"url":"http://www.pacnet.com","length":"36,500 km","cable_id":1592,"landing_points":[{"url":"#/landing-point/ajigaura-japan","landing_point_id":5884,"latlon":"36.383586,140.612220","name":"Ajigaura, Japan","id":"ajigaura-japan"},{"url":"#/landing-point/batangas-philippines","landing_point_id":3218,"latlon":"13.765530,121.064963","name":"Batangas, Philippines","id":"batangas-philippines"},{"url":"#/landing-point/cavite-philippines","landing_point_id":5931,"latlon":"14.286233,120.820139","name":"Cavite, Philippines","id":"cavite-philippines"},{"url":"#/landing-point/changi-north-singapore","landing_point_id":5940,"latlon":"1.389071,103.987042","name":"Changi North, Singapore","id":"changi-north-singapore"},{"url":"#/landing-point/changi-south-singapore","landing_point_id":5937,"latlon":"1.389071,103.987042","name":"Changi South, Singapore","id":"changi-south-singapore"},{"url":"#/landing-point/chikura-japan","landing_point_id":5885,"latlon":"34.976653,139.954603","name":"Chikura, Japan","id":"chikura-japan"},{"url":"#/landing-point/chung-hom-kok-hong-kong","landing_point_id":5856,"latlon":"22.222069,114.203053","name":"Chung Hom Kok, Hong Kong","id":"chung-hom-kok-hong-kong"},{"url":"#/landing-point/fangshan-taiwan","landing_point_id":5980,"latlon":"22.249218,120.662132","name":"Fangshan, Taiwan","id":"fangshan-taiwan"},{"url":"#/landing-point/pa-li-taiwan","landing_point_id":5983,"latlon":"25.149998,121.383225","name":"Pa Li, Taiwan","id":"pa-li-taiwan"},{"url":"#/landing-point/pusan-korea-rep-","landing_point_id":4183,"latlon":"35.170110,128.999335","name":"Pusan, Korea, Rep.","id":"pusan-korea-rep-"},{"url":"#/landing-point/qingdao-china","landing_point_id":6012,"latlon":"36.087102,120.342600","name":"Qingdao, China","id":"qingdao-china"},{"url":"#/landing-point/shanghai-china","landing_point_id":3246,"latlon":"31.247553,121.472483","name":"Shanghai, China","id":"shanghai-china"},{"url":"#/landing-point/shima-japan","landing_point_id":5883,"latlon":"34.336810,136.874331","name":"Shima, Japan","id":"shima-japan"},{"url":"#/landing-point/shindu-ri-korea-rep-","landing_point_id":5977,"latlon":"36.576262,126.391621","name":"Shindu-Ri, Korea, Rep.","id":"shindu-ri-korea-rep-"},{"url":"#/landing-point/tanshui-taiwan","landing_point_id":5982,"latlon":"25.181345,121.462619","name":"Tanshui, Taiwan","id":"tanshui-taiwan"},{"url":"#/landing-point/tseung-kwan-o-hong-kong","landing_point_id":5857,"latlon":"22.318261,114.258717","name":"Tseung Kwan O, Hong Kong","id":"tseung-kwan-o-hong-kong"}],"rfs":"November 2002","name":"EAC-C2C","owners":"Pacnet","id":"eac-c2c"}
