{"notes":null,"url":"http://www.pacnet.com","length":"36,500 km","cable_id":1592,"landing_points":[{"url":"#/landing-point/ajigaura-japan","landing_point_id":5884,"latlon":"36.383558,140.612324","name":"Ajigaura, Japan","id":"ajigaura-japan"},{"url":"#/landing-point/batangas-philippines","landing_point_id":3218,"latlon":"13.765521,121.065017","name":"Batangas, Philippines","id":"batangas-philippines"},{"url":"#/landing-point/cavite-philippines","landing_point_id":5931,"latlon":"14.286227,120.820174","name":"Cavite, Philippines","id":"cavite-philippines"},{"url":"#/landing-point/changi-north-singapore","landing_point_id":5940,"latlon":"1.389040,103.987023","name":"Changi North, Singapore","id":"changi-north-singapore"},{"url":"#/landing-point/changi-south-singapore","landing_point_id":5937,"latlon":"1.389040,103.987023","name":"Changi South, Singapore","id":"changi-south-singapore"},{"url":"#/landing-point/chikura-japan","landing_point_id":5885,"latlon":"34.976637,139.954690","name":"Chikura, Japan","id":"chikura-japan"},{"url":"#/landing-point/chung-hom-kok-hong-kong","landing_point_id":5856,"latlon":"22.222100,114.203081","name":"Chung Hom Kok, Hong Kong","id":"chung-hom-kok-hong-kong"},{"url":"#/landing-point/fangshan-taiwan","landing_point_id":5980,"latlon":"22.249204,120.662165","name":"Fangshan, Taiwan","id":"fangshan-taiwan"},{"url":"#/landing-point/pa-li-taiwan","landing_point_id":5983,"latlon":"25.149980,121.383243","name":"Pa Li, Taiwan","id":"pa-li-taiwan"},{"url":"#/landing-point/pusan-korea-rep-","landing_point_id":4183,"latlon":"35.170083,128.999384","name":"Pusan, Korea, Rep.","id":"pusan-korea-rep-"},{"url":"#/landing-point/qingdao-china","landing_point_id":6012,"latlon":"36.087115,120.342634","name":"Qingdao, China","id":"qingdao-china"},{"url":"#/landing-point/shanghai-china","landing_point_id":3246,"latlon":"31.247571,121.472487","name":"Shanghai, China","id":"shanghai-china"},{"url":"#/landing-point/shima-japan","landing_point_id":5883,"latlon":"34.336772,136.874423","name":"Shima, Japan","id":"shima-japan"},{"url":"#/landing-point/shindu-ri-korea-rep-","landing_point_id":5977,"latlon":"36.576300,126.391638","name":"Shindu-Ri, Korea, Rep.","id":"shindu-ri-korea-rep-"},{"url":"#/landing-point/tanshui-taiwan","landing_point_id":5982,"latlon":"25.181300,121.462649","name":"Tanshui, Taiwan","id":"tanshui-taiwan"},{"url":"#/landing-point/tseung-kwan-o-hong-kong","landing_point_id":5857,"latlon":"22.318270,114.258695","name":"Tseung Kwan O, Hong Kong","id":"tseung-kwan-o-hong-kong"}],"rfs":"November 2002","name":"EAC-C2C","owners":"Pacnet","id":"eac-c2c"}
