{"landing_points":[{"url":"#/landing-point/ajigaura-japan","name":"Ajigaura, Japan","landing_point_id":5884,"id":"ajigaura-japan","latlon":"36.383562,140.612268"},{"url":"#/landing-point/batangas-philippines","name":"Batangas, Philippines","landing_point_id":3218,"id":"batangas-philippines","latlon":"13.765555,121.064939"},{"url":"#/landing-point/cavite-philippines","name":"Cavite, Philippines","landing_point_id":5931,"id":"cavite-philippines","latlon":"14.286270,120.820115"},{"url":"#/landing-point/changi-north-singapore","name":"Changi North, Singapore","landing_point_id":5940,"id":"changi-north-singapore","latlon":"1.389047,103.987017"},{"url":"#/landing-point/changi-south-singapore","name":"Changi South, Singapore","landing_point_id":5937,"id":"changi-south-singapore","latlon":"1.389047,103.987017"},{"url":"#/landing-point/chikura-japan","name":"Chikura, Japan","landing_point_id":5885,"id":"chikura-japan","latlon":"34.976653,139.954652"},{"url":"#/landing-point/chung-hom-kok-hong-kong","name":"Chung Hom Kok, Hong Kong","landing_point_id":5856,"id":"chung-hom-kok-hong-kong","latlon":"22.222045,114.203028"},{"url":"#/landing-point/fangshan-taiwan","name":"Fangshan, Taiwan","landing_point_id":5980,"id":"fangshan-taiwan","latlon":"22.249254,120.662107"},{"url":"#/landing-point/pa-li-taiwan","name":"Pa Li, Taiwan","landing_point_id":5983,"id":"pa-li-taiwan","latlon":"25.149985,121.383200"},{"url":"#/landing-point/pusan-korea-rep-","name":"Pusan, Korea, Rep.","landing_point_id":4183,"id":"pusan-korea-rep-","latlon":"35.170147,128.999310"},{"url":"#/landing-point/qingdao-china","name":"Qingdao, China","landing_point_id":6012,"id":"qingdao-china","latlon":"36.087077,120.342576"},{"url":"#/landing-point/shanghai-china","name":"Shanghai, China","landing_point_id":3246,"id":"shanghai-china","latlon":"31.247504,121.472458"},{"url":"#/landing-point/shima-japan","name":"Shima, Japan","landing_point_id":5883,"id":"shima-japan","latlon":"34.336834,136.874380"},{"url":"#/landing-point/shindu-ri-korea-rep-","name":"Shindu-Ri, Korea, Rep.","landing_point_id":5977,"id":"shindu-ri-korea-rep-","latlon":"36.576249,126.391597"},{"url":"#/landing-point/tanshui-taiwan","name":"Tanshui, Taiwan","landing_point_id":5982,"id":"tanshui-taiwan","latlon":"25.181357,121.462595"},{"url":"#/landing-point/tseung-kwan-o-hong-kong","name":"Tseung Kwan O, Hong Kong","landing_point_id":5857,"id":"tseung-kwan-o-hong-kong","latlon":"22.318297,114.258692"}],"rfs":"November 2002","length":"36,500 km","owners":"Telstra","notes":null,"url":"http://www.telstraglobal.com/","name":"EAC-C2C","id":"eac-c2c","cable_id":1592}
