{"landing_points":[{"url":"#/landing-point/ajigaura-japan","name":"Ajigaura, Japan","landing_point_id":5884,"id":"ajigaura-japan","latlon":"36.383586,140.612220"},{"url":"#/landing-point/batangas-philippines","name":"Batangas, Philippines","landing_point_id":3218,"id":"batangas-philippines","latlon":"13.765530,121.064963"},{"url":"#/landing-point/cavite-philippines","name":"Cavite, Philippines","landing_point_id":5931,"id":"cavite-philippines","latlon":"14.286233,120.820139"},{"url":"#/landing-point/changi-north-singapore","name":"Changi North, Singapore","landing_point_id":5940,"id":"changi-north-singapore","latlon":"1.389071,103.987042"},{"url":"#/landing-point/changi-south-singapore","name":"Changi South, Singapore","landing_point_id":5937,"id":"changi-south-singapore","latlon":"1.389071,103.987042"},{"url":"#/landing-point/chikura-japan","name":"Chikura, Japan","landing_point_id":5885,"id":"chikura-japan","latlon":"34.976653,139.954603"},{"url":"#/landing-point/chung-hom-kok-hong-kong","name":"Chung Hom Kok, Hong Kong","landing_point_id":5856,"id":"chung-hom-kok-hong-kong","latlon":"22.222069,114.203053"},{"url":"#/landing-point/fangshan-taiwan","name":"Fangshan, Taiwan","landing_point_id":5980,"id":"fangshan-taiwan","latlon":"22.249218,120.662132"},{"url":"#/landing-point/pa-li-taiwan","name":"Pa Li, Taiwan","landing_point_id":5983,"id":"pa-li-taiwan","latlon":"25.149998,121.383225"},{"url":"#/landing-point/pusan-korea-rep-","name":"Pusan, Korea, Rep.","landing_point_id":4183,"id":"pusan-korea-rep-","latlon":"35.170110,128.999335"},{"url":"#/landing-point/qingdao-china","name":"Qingdao, China","landing_point_id":6012,"id":"qingdao-china","latlon":"36.087102,120.342600"},{"url":"#/landing-point/shanghai-china","name":"Shanghai, China","landing_point_id":3246,"id":"shanghai-china","latlon":"31.247553,121.472483"},{"url":"#/landing-point/shima-japan","name":"Shima, Japan","landing_point_id":5883,"id":"shima-japan","latlon":"34.336810,136.874331"},{"url":"#/landing-point/shindu-ri-korea-rep-","name":"Shindu-Ri, Korea, Rep.","landing_point_id":5977,"id":"shindu-ri-korea-rep-","latlon":"36.576262,126.391621"},{"url":"#/landing-point/tanshui-taiwan","name":"Tanshui, Taiwan","landing_point_id":5982,"id":"tanshui-taiwan","latlon":"25.181345,121.462619"},{"url":"#/landing-point/tseung-kwan-o-hong-kong","name":"Tseung Kwan O, Hong Kong","landing_point_id":5857,"id":"tseung-kwan-o-hong-kong","latlon":"22.318261,114.258717"}],"rfs":"November 2002","length":"36,500 km","owners":"Pacnet","cable_id":1592,"notes":null,"url":"http://www.pacnet.com","name":"EAC-C2C","id":"eac-c2c"}
