{"notes":null,"url":"http://www.globalcloudxchange.com","length":"10,300 km","cable_id":1346,"landing_points":[{"url":"#/landing-point/al-ghaydah-yemen","landing_point_id":7679,"latlon":"16.210353,52.182379","name":"Al Ghaydah, Yemen","id":"al-ghaydah-yemen"},{"url":"#/landing-point/al-hudaydah-yemen","landing_point_id":7681,"latlon":"14.685549,43.008555","name":"Al Hudaydah, Yemen","id":"al-hudaydah-yemen"},{"url":"#/landing-point/al-khobar-saudi-arabia","landing_point_id":7729,"latlon":"26.286130,50.214216","name":"Al Khobar, Saudi Arabia","id":"al-khobar-saudi-arabia"},{"url":"#/landing-point/al-safat-kuwait","landing_point_id":4294,"latlon":"29.369917,47.976522","name":"Al Safat, Kuwait","id":"al-safat-kuwait"},{"url":"#/landing-point/al-seeb-oman","landing_point_id":7646,"latlon":"23.684666,58.176126","name":"Al Seeb, Oman","id":"al-seeb-oman"},{"url":"#/landing-point/al-faw-iraq","landing_point_id":9596,"latlon":"29.923335,48.531795","name":"Al-Faw, Iraq","id":"al-faw-iraq"},{"url":"#/landing-point/bandar-abbas-iran","landing_point_id":8848,"latlon":"27.187204,56.274369","name":"Bandar Abbas, Iran","id":"bandar-abbas-iran"},{"url":"#/landing-point/chabahar-iran","landing_point_id":8849,"latlon":"25.298240,60.629641","name":"Chabahar, Iran","id":"chabahar-iran"},{"url":"#/landing-point/doha-qatar","landing_point_id":3867,"latlon":"25.294333,51.519391","name":"Doha, Qatar","id":"doha-qatar"},{"url":"#/landing-point/dubai-united-arab-emirates","landing_point_id":3270,"latlon":"25.269334,55.308452","name":"Dubai, United Arab Emirates","id":"dubai-united-arab-emirates"},{"url":"#/landing-point/jeddah-saudi-arabia","landing_point_id":4361,"latlon":"21.481249,39.182776","name":"Jeddah, Saudi Arabia","id":"jeddah-saudi-arabia"},{"url":"#/landing-point/khasab-oman","landing_point_id":7645,"latlon":"26.181345,56.246830","name":"Khasab, Oman","id":"khasab-oman"},{"url":"#/landing-point/manama-bahrain","landing_point_id":4188,"latlon":"26.229001,50.575837","name":"Manama, Bahrain","id":"manama-bahrain"},{"url":"#/landing-point/mumbai-india","landing_point_id":3212,"latlon":"19.075782,72.875924","name":"Mumbai, India","id":"mumbai-india"},{"url":"#/landing-point/port-sudan-sudan","landing_point_id":5950,"latlon":"19.615528,37.219691","name":"Port Sudan, Sudan","id":"port-sudan-sudan"},{"url":"#/landing-point/suez-egypt","landing_point_id":5825,"latlon":"29.972261,32.530142","name":"Suez, Egypt","id":"suez-egypt"}],"rfs":"September 2006","name":"FALCON","id":"falcon","owners":"Global Cloud Xchange"}
