{"landing_points":[{"url":"#/landing-point/al-ghaydah-yemen","name":"Al Ghaydah, Yemen","landing_point_id":7679,"id":"al-ghaydah-yemen","latlon":"16.210378,52.182355"},{"url":"#/landing-point/al-hudaydah-yemen","name":"Al Hudaydah, Yemen","landing_point_id":7681,"id":"al-hudaydah-yemen","latlon":"14.685562,43.008531"},{"url":"#/landing-point/al-khobar-saudi-arabia","name":"Al Khobar, Saudi Arabia","landing_point_id":7729,"id":"al-khobar-saudi-arabia","latlon":"26.286167,50.214191"},{"url":"#/landing-point/al-safat-kuwait","name":"Al Safat, Kuwait","landing_point_id":4294,"id":"al-safat-kuwait","latlon":"29.369930,47.976497"},{"url":"#/landing-point/al-seeb-oman","name":"Al Seeb, Oman","landing_point_id":7646,"id":"al-seeb-oman","latlon":"23.684703,58.176102"},{"url":"#/landing-point/al-faw-iraq","name":"Al-Faw, Iraq","landing_point_id":9596,"id":"al-faw-iraq","latlon":"29.923299,48.531770"},{"url":"#/landing-point/bandar-abbas-iran","name":"Bandar Abbas, Iran","landing_point_id":8848,"id":"bandar-abbas-iran","latlon":"27.187167,56.274345"},{"url":"#/landing-point/chabahar-iran","name":"Chabahar, Iran","landing_point_id":8849,"id":"chabahar-iran","latlon":"25.298228,60.629616"},{"url":"#/landing-point/doha-qatar","name":"Doha, Qatar","landing_point_id":3867,"id":"doha-qatar","latlon":"25.294346,51.519367"},{"url":"#/landing-point/dubai-united-arab-emirates","name":"Dubai, United Arab Emirates","landing_point_id":3270,"id":"dubai-united-arab-emirates","latlon":"25.269346,55.308427"},{"url":"#/landing-point/jeddah-saudi-arabia","name":"Jeddah, Saudi Arabia","landing_point_id":4361,"id":"jeddah-saudi-arabia","latlon":"21.481262,39.182751"},{"url":"#/landing-point/khasab-oman","name":"Khasab, Oman","landing_point_id":7645,"id":"khasab-oman","latlon":"26.181308,56.246806"},{"url":"#/landing-point/manama-bahrain","name":"Manama, Bahrain","landing_point_id":4188,"id":"manama-bahrain","latlon":"26.228977,50.575812"},{"url":"#/landing-point/mumbai-india","name":"Mumbai, India","landing_point_id":3212,"id":"mumbai-india","latlon":"19.075794,72.875899"},{"url":"#/landing-point/port-sudan-sudan","name":"Port Sudan, Sudan","landing_point_id":5950,"id":"port-sudan-sudan","latlon":"19.615564,37.219666"},{"url":"#/landing-point/suez-egypt","name":"Suez, Egypt","landing_point_id":5825,"id":"suez-egypt","latlon":"29.972285,32.530118"}],"rfs":"September 2006","length":"10,300 km","owners":"Global Cloud Xchange","notes":null,"url":"http://www.globalcloudxchange.com","name":"FALCON","id":"falcon","cable_id":1346}
