{"landing_points":[{"latlon":"16.210378,52.182355","url":"#/landing-point/al-ghaydah-yemen","name":"Al Ghaydah, Yemen","id":"al-ghaydah-yemen","landing_point_id":7679},{"latlon":"14.685562,43.008531","url":"#/landing-point/al-hudaydah-yemen","name":"Al Hudaydah, Yemen","id":"al-hudaydah-yemen","landing_point_id":7681},{"latlon":"26.286167,50.214191","url":"#/landing-point/al-khobar-saudi-arabia","name":"Al Khobar, Saudi Arabia","id":"al-khobar-saudi-arabia","landing_point_id":7729},{"latlon":"29.369930,47.976497","url":"#/landing-point/al-safat-kuwait","name":"Al Safat, Kuwait","id":"al-safat-kuwait","landing_point_id":4294},{"latlon":"23.684703,58.176102","url":"#/landing-point/al-seeb-oman","name":"Al Seeb, Oman","id":"al-seeb-oman","landing_point_id":7646},{"latlon":"29.923299,48.531770","url":"#/landing-point/al-faw-iraq","name":"Al-Faw, Iraq","id":"al-faw-iraq","landing_point_id":9596},{"latlon":"27.187167,56.274345","url":"#/landing-point/bandar-abbas-iran","name":"Bandar Abbas, Iran","id":"bandar-abbas-iran","landing_point_id":8848},{"latlon":"25.298228,60.629616","url":"#/landing-point/chabahar-iran","name":"Chabahar, Iran","id":"chabahar-iran","landing_point_id":8849},{"latlon":"25.294346,51.519367","url":"#/landing-point/doha-qatar","name":"Doha, Qatar","id":"doha-qatar","landing_point_id":3867},{"latlon":"25.269346,55.308427","url":"#/landing-point/dubai-united-arab-emirates","name":"Dubai, United Arab Emirates","id":"dubai-united-arab-emirates","landing_point_id":3270},{"latlon":"21.481262,39.182751","url":"#/landing-point/jeddah-saudi-arabia","name":"Jeddah, Saudi Arabia","id":"jeddah-saudi-arabia","landing_point_id":4361},{"latlon":"26.181308,56.246806","url":"#/landing-point/khasab-oman","name":"Khasab, Oman","id":"khasab-oman","landing_point_id":7645},{"latlon":"26.228977,50.575812","url":"#/landing-point/manama-bahrain","name":"Manama, Bahrain","id":"manama-bahrain","landing_point_id":4188},{"latlon":"19.075794,72.875899","url":"#/landing-point/mumbai-india","name":"Mumbai, India","id":"mumbai-india","landing_point_id":3212},{"latlon":"19.615564,37.219666","url":"#/landing-point/port-sudan-sudan","name":"Port Sudan, Sudan","id":"port-sudan-sudan","landing_point_id":5950},{"latlon":"29.972285,32.530118","url":"#/landing-point/suez-egypt","name":"Suez, Egypt","id":"suez-egypt","landing_point_id":5825}],"length":"10,300 km","rfs":"September 2006","cable_id":1346,"owners":"Global Cloud Xchange","notes":null,"url":"http://www.globalcloudxchange.com","name":"FALCON","id":"falcon"}
