{"landing_points":[{"url":"#/landing-point/baillif-guadeloupe","name":"Baillif, Guadeloupe","landing_point_id":8834,"id":"baillif-guadeloupe","latlon":"16.028908,-61.713953"},{"url":"#/landing-point/jarry-guadeloupe","name":"Jarry, Guadeloupe","landing_point_id":8836,"id":"jarry-guadeloupe","latlon":"16.242971,-61.554871"},{"url":"#/landing-point/saint-barthelemy-guadeloupe","name":"Saint Barthelemy, Guadeloupe","landing_point_id":7876,"id":"saint-barthelemy-guadeloupe","latlon":"17.900099,-62.833386"},{"url":"#/landing-point/saint-martin-guadeloupe","name":"Saint Martin, Guadeloupe","landing_point_id":7875,"id":"saint-martin-guadeloupe","latlon":"18.092774,-63.050086"},{"url":"#/landing-point/san-juan-puerto-rico-united-states","name":"San Juan, Puerto Rico, United States","landing_point_id":4262,"id":"san-juan-puerto-rico-united-states","latlon":"18.465821,-66.106676"},{"url":"#/landing-point/st-croix-virgin-islands-united-states","name":"St. Croix, Virgin Islands, United States","landing_point_id":5750,"id":"st-croix-virgin-islands-united-states","latlon":"17.771876,-64.819421"}],"rfs":"September 2006","length":"n.a.","owners":"Leucadia National Corporation,  Loret Group","cable_id":1829,"notes":null,"url":"http://www.globalcaribbean.net","name":"Global Caribbean Fiber (GCF)","id":"global-caribbean-fiber-gcf"}
