{"notes":null,"url":"http://www.globalcaribbean.net","length":"n.a.","cable_id":1829,"landing_points":[{"url":"#/landing-point/baillif-guadeloupe","landing_point_id":8834,"latlon":"16.028908,-61.713953","name":"Baillif, Guadeloupe","id":"baillif-guadeloupe"},{"url":"#/landing-point/jarry-guadeloupe","landing_point_id":8836,"latlon":"16.242971,-61.554871","name":"Jarry, Guadeloupe","id":"jarry-guadeloupe"},{"url":"#/landing-point/saint-barthelemy-guadeloupe","landing_point_id":7876,"latlon":"17.900099,-62.833386","name":"Saint Barthelemy, Guadeloupe","id":"saint-barthelemy-guadeloupe"},{"url":"#/landing-point/saint-martin-guadeloupe","landing_point_id":7875,"latlon":"18.092774,-63.050086","name":"Saint Martin, Guadeloupe","id":"saint-martin-guadeloupe"},{"url":"#/landing-point/san-juan-puerto-rico-united-states","landing_point_id":4262,"latlon":"18.465821,-66.106676","name":"San Juan, Puerto Rico, United States","id":"san-juan-puerto-rico-united-states"},{"url":"#/landing-point/st-croix-virgin-islands-united-states","landing_point_id":5750,"latlon":"17.771876,-64.819421","name":"St. Croix, Virgin Islands, United States","id":"st-croix-virgin-islands-united-states"}],"rfs":"September 2006","name":"Global Caribbean Fiber (GCF)","id":"global-caribbean-fiber-gcf","owners":"Leucadia National Corporation,  Loret Group"}
