{"landing_points":[{"url":"#/landing-point/al-daayen-qatar","name":"Al Daayen, Qatar","landing_point_id":10232,"id":"al-daayen-qatar","latlon":"25.538572,51.451911"},{"url":"#/landing-point/al-hidd-bahrain","name":"Al Hidd, Bahrain","landing_point_id":10233,"id":"al-hidd-bahrain","latlon":"26.241599,50.656208"},{"url":"#/landing-point/al-khobar-saudi-arabia","name":"Al Khobar, Saudi Arabia","landing_point_id":7729,"id":"al-khobar-saudi-arabia","latlon":"26.286130,50.214216"},{"url":"#/landing-point/al-seeb-oman","name":"Al Seeb, Oman","landing_point_id":7646,"id":"al-seeb-oman","latlon":"23.684666,58.176126"},{"url":"#/landing-point/al-faw-iraq","name":"Al-Faw, Iraq","landing_point_id":9596,"id":"al-faw-iraq","latlon":"29.923335,48.531795"},{"url":"#/landing-point/bushehr-iran","name":"Bushehr, Iran","landing_point_id":9683,"id":"bushehr-iran","latlon":"28.970015,50.842731"},{"url":"#/landing-point/fujairah-united-arab-emirates","name":"Fujairah, United Arab Emirates","landing_point_id":5962,"id":"fujairah-united-arab-emirates","latlon":"25.121677,56.333744"},{"url":"#/landing-point/kuwait-city-kuwait","name":"Kuwait City, Kuwait","landing_point_id":3871,"id":"kuwait-city-kuwait","latlon":"29.374019,47.974764"},{"url":"#/landing-point/mumbai-india","name":"Mumbai, India","landing_point_id":3212,"id":"mumbai-india","latlon":"19.075782,72.875924"}],"rfs":"February 2012","length":"n.a.","owners":"Gulf Bridge International,  MENA","cable_id":1598,"notes":"GBI owns the entire system, except for one of the fiber pairs from the branching unit near Oman to Mumbai, which is owned by MENA Cable Company. GBI owns one fiber pair on the MENA cable, which links Oman to Italy.","url":"http://www.gbiinc.com","name":"Gulf Bridge International Cable System (GBICS)/Middle East North Africa (MENA) Cable System","id":"gulf-bridge-international-cable-system-gbicsmiddle-east-north-africa-mena-cable-system"}
