{"landing_points":[{"latlon":"-8.464415,115.596973","url":"#/landing-point/bali-indonesia","name":"Bali, Indonesia","id":"bali-indonesia","landing_point_id":9595},{"latlon":"-1.265371,116.831201","url":"#/landing-point/balikpapan-indonesia","name":"Balikpapan, Indonesia","id":"balikpapan-indonesia","landing_point_id":9716},{"latlon":"1.134726,103.962506","url":"#/landing-point/batam-indonesia","name":"Batam, Indonesia","id":"batam-indonesia","landing_point_id":5862},{"latlon":"1.665609,101.447639","url":"#/landing-point/dumai-indonesia","name":"Dumai, Indonesia","id":"dumai-indonesia","landing_point_id":7311},{"latlon":"-6.171594,106.827861","url":"#/landing-point/jakarta-indonesia","name":"Jakarta, Indonesia","id":"jakarta-indonesia","landing_point_id":3012},{"latlon":"-6.902282,113.283473","url":"#/landing-point/madura-indonesia","name":"Madura, Indonesia","id":"madura-indonesia","landing_point_id":16717},{"latlon":"-5.152185,119.412401","url":"#/landing-point/makassar-indonesia","name":"Makassar, Indonesia","id":"makassar-indonesia","landing_point_id":9720},{"latlon":"1.490829,124.839620","url":"#/landing-point/manado-indonesia","name":"Manado, Indonesia","id":"manado-indonesia","landing_point_id":15115},{"latlon":"1.293881,103.853106","url":"#/landing-point/singapore-singapore","name":"Singapore, Singapore","id":"singapore-singapore","landing_point_id":3029},{"latlon":"3.327352,117.578515","url":"#/landing-point/tarakan-indonesia","name":"Tarakan, Indonesia","id":"tarakan-indonesia","landing_point_id":16618}],"length":"5,300 km","rfs":"Q1 2018","cable_id":1895,"owners":"Telkom Indonesia","notes":null,"url":null,"name":"Indonesia Global Gateway (IGG) System","id":"indonesia-global-gateway-igg-system"}
