{"landing_points":[{"url":"#/landing-point/bali-indonesia","name":"Bali, Indonesia","landing_point_id":9595,"id":"bali-indonesia","latlon":"-8.464415,115.596973"},{"url":"#/landing-point/balikpapan-indonesia","name":"Balikpapan, Indonesia","landing_point_id":9716,"id":"balikpapan-indonesia","latlon":"-1.265371,116.831201"},{"url":"#/landing-point/batam-indonesia","name":"Batam, Indonesia","landing_point_id":5862,"id":"batam-indonesia","latlon":"1.134726,103.962506"},{"url":"#/landing-point/dumai-indonesia","name":"Dumai, Indonesia","landing_point_id":7311,"id":"dumai-indonesia","latlon":"1.665609,101.447639"},{"url":"#/landing-point/jakarta-indonesia","name":"Jakarta, Indonesia","landing_point_id":3012,"id":"jakarta-indonesia","latlon":"-6.171594,106.827861"},{"url":"#/landing-point/madura-indonesia","name":"Madura, Indonesia","landing_point_id":16717,"id":"madura-indonesia","latlon":"-6.902282,113.283473"},{"url":"#/landing-point/makassar-indonesia","name":"Makassar, Indonesia","landing_point_id":9720,"id":"makassar-indonesia","latlon":"-5.152185,119.412401"},{"url":"#/landing-point/manado-indonesia","name":"Manado, Indonesia","landing_point_id":15115,"id":"manado-indonesia","latlon":"1.490829,124.839620"},{"url":"#/landing-point/singapore-singapore","name":"Singapore, Singapore","landing_point_id":3029,"id":"singapore-singapore","latlon":"1.293881,103.853106"},{"url":"#/landing-point/tarakan-indonesia","name":"Tarakan, Indonesia","landing_point_id":16618,"id":"tarakan-indonesia","latlon":"3.327352,117.578515"}],"rfs":"Q1 2018","length":"5,300 km","owners":"Telkom Indonesia","notes":null,"url":null,"name":"Indonesia Global Gateway (IGG) System","id":"indonesia-global-gateway-igg-system","cable_id":1895}
