{"landing_points":[{"url":"#/landing-point/akulivik-qubec-canada","name":"Akulivik, Québec, Canada","landing_point_id":15046,"id":"akulivik-qubec-canada","latlon":"60.817656,-78.144219"},{"url":"#/landing-point/arctic-bay-nunavut-canada","name":"Arctic Bay, Nunavut, Canada","landing_point_id":15063,"id":"arctic-bay-nunavut-canada","latlon":"73.037572,-85.148024"},{"url":"#/landing-point/arviat-nunavut-canada","name":"Arviat, Nunavut, Canada","landing_point_id":15052,"id":"arviat-nunavut-canada","latlon":"61.108281,-94.059934"},{"url":"#/landing-point/aupaluk-qubec-canada","name":"Aupaluk, Québec, Canada","landing_point_id":15050,"id":"aupaluk-qubec-canada","latlon":"59.305743,-69.597495"},{"url":"#/landing-point/cambridge-bay-nunavut-canada","name":"Cambridge Bay, Nunavut, Canada","landing_point_id":10397,"id":"cambridge-bay-nunavut-canada","latlon":"69.117457,-105.053874"},{"url":"#/landing-point/cape-dorset-nunavut-canada","name":"Cape Dorset, Nunavut, Canada","landing_point_id":15057,"id":"cape-dorset-nunavut-canada","latlon":"64.230350,-76.540948"},{"url":"#/landing-point/chesterfield-inlet-nunavut-canada","name":"Chesterfield Inlet, Nunavut, Canada","landing_point_id":15055,"id":"chesterfield-inlet-nunavut-canada","latlon":"63.346561,-90.736840"},{"url":"#/landing-point/churchill-manitoba-canada","name":"Churchill, Manitoba, Canada","landing_point_id":15039,"id":"churchill-manitoba-canada","latlon":"58.768439,-94.164963"},{"url":"#/landing-point/clyde-river-nunavut-canada","name":"Clyde River, Nunavut, Canada","landing_point_id":15066,"id":"clyde-river-nunavut-canada","latlon":"70.476343,-68.601255"},{"url":"#/landing-point/coral-harbour-nunavut-canada","name":"Coral Harbour, Nunavut, Canada","landing_point_id":15056,"id":"coral-harbour-nunavut-canada","latlon":"64.138846,-83.169900"},{"url":"#/landing-point/deception-qubec-canada","name":"Deception, Québec, Canada","landing_point_id":15071,"id":"deception-qubec-canada","latlon":"62.114921,-74.630158"},{"url":"#/landing-point/gjoa-haven-nunavut-canada","name":"Gjoa Haven, Nunavut, Canada","landing_point_id":15069,"id":"gjoa-haven-nunavut-canada","latlon":"68.635524,-95.849728"},{"url":"#/landing-point/grise-fiord-nunavut-canada","name":"Grise Fiord, Nunavut, Canada","landing_point_id":15065,"id":"grise-fiord-nunavut-canada","latlon":"76.410813,-82.858768"},{"url":"#/landing-point/hall-beach-nunavut-canada","name":"Hall Beach, Nunavut, Canada","landing_point_id":15041,"id":"hall-beach-nunavut-canada","latlon":"68.772731,-81.235233"},{"url":"#/landing-point/igloolik-nunavut-canada","name":"Igloolik, Nunavut, Canada","landing_point_id":15061,"id":"igloolik-nunavut-canada","latlon":"69.372535,-81.824637"},{"url":"#/landing-point/inukjuak-qubec-canada","name":"Inukjuak, Québec, Canada","landing_point_id":15035,"id":"inukjuak-qubec-canada","latlon":"58.455158,-78.105108"},{"url":"#/landing-point/iqaluit-nunavut-canada","name":"Iqaluit, Nunavut, Canada","landing_point_id":10398,"id":"iqaluit-nunavut-canada","latlon":"63.748612,-68.519712"},{"url":"#/landing-point/ivujivik-qubec-canada","name":"Ivujivik, Québec, Canada","landing_point_id":15047,"id":"ivujivik-qubec-canada","latlon":"62.416679,-77.916680"},{"url":"#/landing-point/kangiqsualujjuaq-qubec-canada","name":"Kangiqsualujjuaq, Québec, Canada","landing_point_id":15038,"id":"kangiqsualujjuaq-qubec-canada","latlon":"58.710138,-65.995104"},{"url":"#/landing-point/kangiqsujuaq-qubec-canada","name":"Kangiqsujuaq, Québec, Canada","landing_point_id":15048,"id":"kangiqsujuaq-qubec-canada","latlon":"61.596269,-71.953890"},{"url":"#/landing-point/kangirsuk-qubec-canada","name":"Kangirsuk, Québec, Canada","landing_point_id":15049,"id":"kangirsuk-qubec-canada","latlon":"60.023418,-70.026254"},{"url":"#/landing-point/kimmirut-nunavut-canada","name":"Kimmirut, Nunavut, Canada","landing_point_id":15058,"id":"kimmirut-nunavut-canada","latlon":"62.847441,-69.869223"},{"url":"#/landing-point/kugluktuk-nunavut-canada","name":"Kugluktuk, Nunavut, Canada","landing_point_id":15067,"id":"kugluktuk-nunavut-canada","latlon":"67.825270,-115.096545"},{"url":"#/landing-point/kuqaaruk-nunavut-canada","name":"Kuqaaruk, Nunavut, Canada","landing_point_id":15062,"id":"kuqaaruk-nunavut-canada","latlon":"68.534743,-89.824975"},{"url":"#/landing-point/kuujjuaq-qubec-canada","name":"Kuujjuaq, Québec, Canada","landing_point_id":15037,"id":"kuujjuaq-qubec-canada","latlon":"58.103009,-68.418833"},{"url":"#/landing-point/kuujjuarapik-qubec-canada","name":"Kuujjuarapik, Québec, Canada","landing_point_id":15042,"id":"kuujjuarapik-qubec-canada","latlon":"55.274593,-77.763799"},{"url":"#/landing-point/moosonee-ontario-canada","name":"Moosonee, Ontario, Canada","landing_point_id":15034,"id":"moosonee-ontario-canada","latlon":"51.273130,-80.640067"},{"url":"#/landing-point/pangnirtung-nunavut-canada","name":"Pangnirtung, Nunavut, Canada","landing_point_id":15059,"id":"pangnirtung-nunavut-canada","latlon":"66.146560,-65.701207"},{"url":"#/landing-point/pond-inlet-nunavut-canada","name":"Pond Inlet, Nunavut, Canada","landing_point_id":15064,"id":"pond-inlet-nunavut-canada","latlon":"72.700073,-77.958526"},{"url":"#/landing-point/puvirnituq-qubec-canada","name":"Puvirnituq, Québec, Canada","landing_point_id":15045,"id":"puvirnituq-qubec-canada","latlon":"60.037090,-77.269219"},{"url":"#/landing-point/qikiqtarjuaq-nunavut-canada","name":"Qikiqtarjuaq, Nunavut, Canada","landing_point_id":15060,"id":"qikiqtarjuaq-nunavut-canada","latlon":"67.555544,-64.025671"},{"url":"#/landing-point/quaqtaq-qubec-canada","name":"Quaqtaq, Québec, Canada","landing_point_id":15072,"id":"quaqtaq-qubec-canada","latlon":"61.041680,-69.639926"},{"url":"#/landing-point/rankin-inlet-nunavut-canada","name":"Rankin Inlet, Nunavut, Canada","landing_point_id":15054,"id":"rankin-inlet-nunavut-canada","latlon":"62.808378,-92.085277"},{"url":"#/landing-point/repulse-bay-nunavut-canada","name":"Repulse Bay, Nunavut, Canada","landing_point_id":15040,"id":"repulse-bay-nunavut-canada","latlon":"66.528298,-86.244655"},{"url":"#/landing-point/resolute-nunavut-canada","name":"Resolute, Nunavut, Canada","landing_point_id":15070,"id":"resolute-nunavut-canada","latlon":"74.697337,-94.829709"},{"url":"#/landing-point/salluit-qubec-canada","name":"Salluit, Québec, Canada","landing_point_id":15036,"id":"salluit-qubec-canada","latlon":"62.201249,-75.646857"},{"url":"#/landing-point/sanikiluaq-nunavut-canada","name":"Sanikiluaq, Nunavut, Canada","landing_point_id":15044,"id":"sanikiluaq-nunavut-canada","latlon":"56.540803,-79.223222"},{"url":"#/landing-point/taloyoak-nunavut-canada","name":"Taloyoak, Nunavut, Canada","landing_point_id":15068,"id":"taloyoak-nunavut-canada","latlon":"69.536695,-93.527122"},{"url":"#/landing-point/tasiujaq-qubec-canada","name":"Tasiujaq, Québec, Canada","landing_point_id":15051,"id":"tasiujaq-qubec-canada","latlon":"58.697443,-69.937387"},{"url":"#/landing-point/umiujaq-qubec-canada","name":"Umiujaq, Québec, Canada","landing_point_id":15043,"id":"umiujaq-qubec-canada","latlon":"56.551545,-76.547101"},{"url":"#/landing-point/whale-cove-nunavut-canada","name":"Whale Cove, Nunavut, Canada","landing_point_id":15053,"id":"whale-cove-nunavut-canada","latlon":"62.242558,-92.601683"}],"rfs":"November 2015","length":"8,000 km","owners":"Nuvitik,  Inc.","cable_id":1815,"notes":null,"url":"http://www.nuvitik.ca","name":"Ivaluk Network","id":"ivaluk-network"}
