{"notes":null,"url":"http://www.nuvitik.ca","length":"8,000 km","cable_id":1815,"landing_points":[{"url":"#/landing-point/akulivik-qubec-canada","landing_point_id":15046,"latlon":"60.817656,-78.144219","name":"Akulivik, Québec, Canada","id":"akulivik-qubec-canada"},{"url":"#/landing-point/arctic-bay-nunavut-canada","landing_point_id":15063,"latlon":"73.037572,-85.148024","name":"Arctic Bay, Nunavut, Canada","id":"arctic-bay-nunavut-canada"},{"url":"#/landing-point/arviat-nunavut-canada","landing_point_id":15052,"latlon":"61.108281,-94.059934","name":"Arviat, Nunavut, Canada","id":"arviat-nunavut-canada"},{"url":"#/landing-point/aupaluk-qubec-canada","landing_point_id":15050,"latlon":"59.305743,-69.597495","name":"Aupaluk, Québec, Canada","id":"aupaluk-qubec-canada"},{"url":"#/landing-point/cambridge-bay-nunavut-canada","landing_point_id":10397,"latlon":"69.117457,-105.053874","name":"Cambridge Bay, Nunavut, Canada","id":"cambridge-bay-nunavut-canada"},{"url":"#/landing-point/cape-dorset-nunavut-canada","landing_point_id":15057,"latlon":"64.230350,-76.540948","name":"Cape Dorset, Nunavut, Canada","id":"cape-dorset-nunavut-canada"},{"url":"#/landing-point/chesterfield-inlet-nunavut-canada","landing_point_id":15055,"latlon":"63.346561,-90.736840","name":"Chesterfield Inlet, Nunavut, Canada","id":"chesterfield-inlet-nunavut-canada"},{"url":"#/landing-point/churchill-manitoba-canada","landing_point_id":15039,"latlon":"58.768439,-94.164963","name":"Churchill, Manitoba, Canada","id":"churchill-manitoba-canada"},{"url":"#/landing-point/clyde-river-nunavut-canada","landing_point_id":15066,"latlon":"70.476343,-68.601255","name":"Clyde River, Nunavut, Canada","id":"clyde-river-nunavut-canada"},{"url":"#/landing-point/coral-harbour-nunavut-canada","landing_point_id":15056,"latlon":"64.138846,-83.169900","name":"Coral Harbour, Nunavut, Canada","id":"coral-harbour-nunavut-canada"},{"url":"#/landing-point/deception-qubec-canada","landing_point_id":15071,"latlon":"62.114921,-74.630158","name":"Deception, Québec, Canada","id":"deception-qubec-canada"},{"url":"#/landing-point/gjoa-haven-nunavut-canada","landing_point_id":15069,"latlon":"68.635524,-95.849728","name":"Gjoa Haven, Nunavut, Canada","id":"gjoa-haven-nunavut-canada"},{"url":"#/landing-point/grise-fiord-nunavut-canada","landing_point_id":15065,"latlon":"76.410813,-82.858768","name":"Grise Fiord, Nunavut, Canada","id":"grise-fiord-nunavut-canada"},{"url":"#/landing-point/hall-beach-nunavut-canada","landing_point_id":15041,"latlon":"68.772731,-81.235233","name":"Hall Beach, Nunavut, Canada","id":"hall-beach-nunavut-canada"},{"url":"#/landing-point/igloolik-nunavut-canada","landing_point_id":15061,"latlon":"69.372535,-81.824637","name":"Igloolik, Nunavut, Canada","id":"igloolik-nunavut-canada"},{"url":"#/landing-point/inukjuak-qubec-canada","landing_point_id":15035,"latlon":"58.455158,-78.105108","name":"Inukjuak, Québec, Canada","id":"inukjuak-qubec-canada"},{"url":"#/landing-point/iqaluit-nunavut-canada","landing_point_id":10398,"latlon":"63.748612,-68.519712","name":"Iqaluit, Nunavut, Canada","id":"iqaluit-nunavut-canada"},{"url":"#/landing-point/ivujivik-qubec-canada","landing_point_id":15047,"latlon":"62.416679,-77.916680","name":"Ivujivik, Québec, Canada","id":"ivujivik-qubec-canada"},{"url":"#/landing-point/kangiqsualujjuaq-qubec-canada","landing_point_id":15038,"latlon":"58.710138,-65.995104","name":"Kangiqsualujjuaq, Québec, Canada","id":"kangiqsualujjuaq-qubec-canada"},{"url":"#/landing-point/kangiqsujuaq-qubec-canada","landing_point_id":15048,"latlon":"61.596269,-71.953890","name":"Kangiqsujuaq, Québec, Canada","id":"kangiqsujuaq-qubec-canada"},{"url":"#/landing-point/kangirsuk-qubec-canada","landing_point_id":15049,"latlon":"60.023418,-70.026254","name":"Kangirsuk, Québec, Canada","id":"kangirsuk-qubec-canada"},{"url":"#/landing-point/kimmirut-nunavut-canada","landing_point_id":15058,"latlon":"62.847441,-69.869223","name":"Kimmirut, Nunavut, Canada","id":"kimmirut-nunavut-canada"},{"url":"#/landing-point/kugluktuk-nunavut-canada","landing_point_id":15067,"latlon":"67.825270,-115.096545","name":"Kugluktuk, Nunavut, Canada","id":"kugluktuk-nunavut-canada"},{"url":"#/landing-point/kuqaaruk-nunavut-canada","landing_point_id":15062,"latlon":"68.534743,-89.824975","name":"Kuqaaruk, Nunavut, Canada","id":"kuqaaruk-nunavut-canada"},{"url":"#/landing-point/kuujjuaq-qubec-canada","landing_point_id":15037,"latlon":"58.103009,-68.418833","name":"Kuujjuaq, Québec, Canada","id":"kuujjuaq-qubec-canada"},{"url":"#/landing-point/kuujjuarapik-qubec-canada","landing_point_id":15042,"latlon":"55.274593,-77.763799","name":"Kuujjuarapik, Québec, Canada","id":"kuujjuarapik-qubec-canada"},{"url":"#/landing-point/moosonee-ontario-canada","landing_point_id":15034,"latlon":"51.273130,-80.640067","name":"Moosonee, Ontario, Canada","id":"moosonee-ontario-canada"},{"url":"#/landing-point/pangnirtung-nunavut-canada","landing_point_id":15059,"latlon":"66.146560,-65.701207","name":"Pangnirtung, Nunavut, Canada","id":"pangnirtung-nunavut-canada"},{"url":"#/landing-point/pond-inlet-nunavut-canada","landing_point_id":15064,"latlon":"72.700073,-77.958526","name":"Pond Inlet, Nunavut, Canada","id":"pond-inlet-nunavut-canada"},{"url":"#/landing-point/puvirnituq-qubec-canada","landing_point_id":15045,"latlon":"60.037090,-77.269219","name":"Puvirnituq, Québec, Canada","id":"puvirnituq-qubec-canada"},{"url":"#/landing-point/qikiqtarjuaq-nunavut-canada","landing_point_id":15060,"latlon":"67.555544,-64.025671","name":"Qikiqtarjuaq, Nunavut, Canada","id":"qikiqtarjuaq-nunavut-canada"},{"url":"#/landing-point/quaqtaq-qubec-canada","landing_point_id":15072,"latlon":"61.041680,-69.639926","name":"Quaqtaq, Québec, Canada","id":"quaqtaq-qubec-canada"},{"url":"#/landing-point/rankin-inlet-nunavut-canada","landing_point_id":15054,"latlon":"62.808378,-92.085277","name":"Rankin Inlet, Nunavut, Canada","id":"rankin-inlet-nunavut-canada"},{"url":"#/landing-point/repulse-bay-nunavut-canada","landing_point_id":15040,"latlon":"66.528298,-86.244655","name":"Repulse Bay, Nunavut, Canada","id":"repulse-bay-nunavut-canada"},{"url":"#/landing-point/resolute-nunavut-canada","landing_point_id":15070,"latlon":"74.697337,-94.829709","name":"Resolute, Nunavut, Canada","id":"resolute-nunavut-canada"},{"url":"#/landing-point/salluit-qubec-canada","landing_point_id":15036,"latlon":"62.201249,-75.646857","name":"Salluit, Québec, Canada","id":"salluit-qubec-canada"},{"url":"#/landing-point/sanikiluaq-nunavut-canada","landing_point_id":15044,"latlon":"56.540803,-79.223222","name":"Sanikiluaq, Nunavut, Canada","id":"sanikiluaq-nunavut-canada"},{"url":"#/landing-point/taloyoak-nunavut-canada","landing_point_id":15068,"latlon":"69.536695,-93.527122","name":"Taloyoak, Nunavut, Canada","id":"taloyoak-nunavut-canada"},{"url":"#/landing-point/tasiujaq-qubec-canada","landing_point_id":15051,"latlon":"58.697443,-69.937387","name":"Tasiujaq, Québec, Canada","id":"tasiujaq-qubec-canada"},{"url":"#/landing-point/umiujaq-qubec-canada","landing_point_id":15043,"latlon":"56.551545,-76.547101","name":"Umiujaq, Québec, Canada","id":"umiujaq-qubec-canada"},{"url":"#/landing-point/whale-cove-nunavut-canada","landing_point_id":15053,"latlon":"62.242558,-92.601683","name":"Whale Cove, Nunavut, Canada","id":"whale-cove-nunavut-canada"}],"rfs":"November 2015","name":"Ivaluk Network","owners":"Nuvitik,  Inc.","id":"ivaluk-network"}
