{"landing_points":[{"url":"#/landing-point/bali-indonesia","name":"Bali, Indonesia","landing_point_id":9597,"id":"bali-indonesia","latlon":"-8.464439,115.596997"},{"url":"#/landing-point/banjarmasin-indonesia","name":"Banjarmasin, Indonesia","landing_point_id":7803,"id":"banjarmasin-indonesia","latlon":"-3.328016,114.604029"},{"url":"#/landing-point/beculuk-indonesia","name":"Beculuk, Indonesia","landing_point_id":14611,"id":"beculuk-indonesia","latlon":"-8.615611,114.097096"},{"url":"#/landing-point/jimbaran-indonesia","name":"Jimbaran, Indonesia","landing_point_id":14612,"id":"jimbaran-indonesia","latlon":"-8.784068,115.159888"},{"url":"#/landing-point/ketapang-indonesia","name":"Ketapang, Indonesia","landing_point_id":14607,"id":"ketapang-indonesia","latlon":"-1.859072,109.971902"},{"url":"#/landing-point/mataram-indonesia","name":"Mataram, Indonesia","landing_point_id":14613,"id":"mataram-indonesia","latlon":"-8.586412,116.081567"},{"url":"#/landing-point/pankalan-indonesia","name":"Pankalan, Indonesia","landing_point_id":14608,"id":"pankalan-indonesia","latlon":"-2.849696,111.752956"},{"url":"#/landing-point/pontianak-indonesia","name":"Pontianak, Indonesia","landing_point_id":8360,"id":"pontianak-indonesia","latlon":"-0.027432,109.335672"},{"url":"#/landing-point/sangata-indonesia","name":"Sangata, Indonesia","landing_point_id":14609,"id":"sangata-indonesia","latlon":"0.326865,117.551000"},{"url":"#/landing-point/toweli-indonesia","name":"Toweli, Indonesia","landing_point_id":14610,"id":"toweli-indonesia","latlon":"-1.142470,119.388402"}],"rfs":"2010","length":"1,700 km","owners":"Telkom Indonesia","cable_id":1767,"notes":null,"url":null,"name":"JaKa2LaDeMa","id":"jaka2ladema"}
