{"notes":null,"url":null,"length":"1,700 km","cable_id":1767,"landing_points":[{"url":"#/landing-point/bali-indonesia","landing_point_id":9597,"latlon":"-8.464421,115.597051","name":"Bali, Indonesia","id":"bali-indonesia"},{"url":"#/landing-point/banjarmasin-indonesia","landing_point_id":7803,"latlon":"-3.328133,114.604026","name":"Banjarmasin, Indonesia","id":"banjarmasin-indonesia"},{"url":"#/landing-point/beculuk-indonesia","landing_point_id":14611,"latlon":"-8.615603,114.097073","name":"Beculuk, Indonesia","id":"beculuk-indonesia"},{"url":"#/landing-point/jimbaran-indonesia","landing_point_id":14612,"latlon":"-8.784052,115.159867","name":"Jimbaran, Indonesia","id":"jimbaran-indonesia"},{"url":"#/landing-point/ketapang-indonesia","landing_point_id":14607,"latlon":"-1.859074,109.971880","name":"Ketapang, Indonesia","id":"ketapang-indonesia"},{"url":"#/landing-point/mataram-indonesia","landing_point_id":14613,"latlon":"-8.586391,116.081518","name":"Mataram, Indonesia","id":"mataram-indonesia"},{"url":"#/landing-point/pankalan-indonesia","landing_point_id":14608,"latlon":"-2.849690,111.752942","name":"Pankalan, Indonesia","id":"pankalan-indonesia"},{"url":"#/landing-point/pontianak-indonesia","landing_point_id":8360,"latlon":"-0.027417,109.335629","name":"Pontianak, Indonesia","id":"pontianak-indonesia"},{"url":"#/landing-point/sangata-indonesia","landing_point_id":14609,"latlon":"0.326848,117.550979","name":"Sangata, Indonesia","id":"sangata-indonesia"},{"url":"#/landing-point/toweli-indonesia","landing_point_id":14610,"latlon":"-1.142513,119.388458","name":"Toweli, Indonesia","id":"toweli-indonesia"}],"rfs":"2010","name":"JaKa2LaDeMa","owners":"Telkom Indonesia","id":"jaka2ladema"}
