{"notes":null,"url":null,"length":"1,700 km","cable_id":1767,"landing_points":[{"url":"#/landing-point/bali-indonesia","landing_point_id":9597,"latlon":"-8.464439,115.596997","name":"Bali, Indonesia","id":"bali-indonesia"},{"url":"#/landing-point/banjarmasin-indonesia","landing_point_id":7803,"latlon":"-3.328016,114.604029","name":"Banjarmasin, Indonesia","id":"banjarmasin-indonesia"},{"url":"#/landing-point/beculuk-indonesia","landing_point_id":14611,"latlon":"-8.615611,114.097096","name":"Beculuk, Indonesia","id":"beculuk-indonesia"},{"url":"#/landing-point/jimbaran-indonesia","landing_point_id":14612,"latlon":"-8.784068,115.159888","name":"Jimbaran, Indonesia","id":"jimbaran-indonesia"},{"url":"#/landing-point/ketapang-indonesia","landing_point_id":14607,"latlon":"-1.859072,109.971902","name":"Ketapang, Indonesia","id":"ketapang-indonesia"},{"url":"#/landing-point/mataram-indonesia","landing_point_id":14613,"latlon":"-8.586412,116.081567","name":"Mataram, Indonesia","id":"mataram-indonesia"},{"url":"#/landing-point/pankalan-indonesia","landing_point_id":14608,"latlon":"-2.849696,111.752956","name":"Pankalan, Indonesia","id":"pankalan-indonesia"},{"url":"#/landing-point/pontianak-indonesia","landing_point_id":8360,"latlon":"-0.027432,109.335672","name":"Pontianak, Indonesia","id":"pontianak-indonesia"},{"url":"#/landing-point/sangata-indonesia","landing_point_id":14609,"latlon":"0.326865,117.551000","name":"Sangata, Indonesia","id":"sangata-indonesia"},{"url":"#/landing-point/toweli-indonesia","landing_point_id":14610,"latlon":"-1.142470,119.388402","name":"Toweli, Indonesia","id":"toweli-indonesia"}],"rfs":"2010","name":"JaKa2LaDeMa","id":"jaka2ladema","owners":"Telkom Indonesia"}
