{"landing_points":[{"latlon":"-8.464415,115.596973","url":"#/landing-point/bali-indonesia","name":"Bali, Indonesia","id":"bali-indonesia","landing_point_id":9597},{"latlon":"-3.327967,114.604005","url":"#/landing-point/banjarmasin-indonesia","name":"Banjarmasin, Indonesia","id":"banjarmasin-indonesia","landing_point_id":7803},{"latlon":"-8.615636,114.097071","url":"#/landing-point/beculuk-indonesia","name":"Beculuk, Indonesia","id":"beculuk-indonesia","landing_point_id":14611},{"latlon":"-8.784093,115.159864","url":"#/landing-point/jimbaran-indonesia","name":"Jimbaran, Indonesia","id":"jimbaran-indonesia","landing_point_id":14612},{"latlon":"-1.859120,109.971878","url":"#/landing-point/ketapang-indonesia","name":"Ketapang, Indonesia","id":"ketapang-indonesia","landing_point_id":14607},{"latlon":"-8.586388,116.081543","url":"#/landing-point/mataram-indonesia","name":"Mataram, Indonesia","id":"mataram-indonesia","landing_point_id":14613},{"latlon":"-2.849672,111.752932","url":"#/landing-point/pankalan-indonesia","name":"Pankalan, Indonesia","id":"pankalan-indonesia","landing_point_id":14608},{"latlon":"-0.027407,109.335648","url":"#/landing-point/pontianak-indonesia","name":"Pontianak, Indonesia","id":"pontianak-indonesia","landing_point_id":8360},{"latlon":"0.326889,117.550976","url":"#/landing-point/sangata-indonesia","name":"Sangata, Indonesia","id":"sangata-indonesia","landing_point_id":14609},{"latlon":"-1.142470,119.388377","url":"#/landing-point/toweli-indonesia","name":"Toweli, Indonesia","id":"toweli-indonesia","landing_point_id":14610}],"length":"1,700 km","rfs":"2010","cable_id":1767,"owners":"Telkom Indonesia","notes":null,"url":null,"name":"JaKa2LaDeMa","id":"jaka2ladema"}
