{"landing_points":[{"latlon":"-8.464421,115.597051","url":"#/landing-point/bali-indonesia","name":"Bali, Indonesia","id":"bali-indonesia","landing_point_id":9597},{"latlon":"-3.328133,114.604026","url":"#/landing-point/banjarmasin-indonesia","name":"Banjarmasin, Indonesia","id":"banjarmasin-indonesia","landing_point_id":7803},{"latlon":"-8.615603,114.097073","url":"#/landing-point/beculuk-indonesia","name":"Beculuk, Indonesia","id":"beculuk-indonesia","landing_point_id":14611},{"latlon":"-8.784052,115.159867","url":"#/landing-point/jimbaran-indonesia","name":"Jimbaran, Indonesia","id":"jimbaran-indonesia","landing_point_id":14612},{"latlon":"-1.859074,109.971880","url":"#/landing-point/ketapang-indonesia","name":"Ketapang, Indonesia","id":"ketapang-indonesia","landing_point_id":14607},{"latlon":"-8.586391,116.081518","url":"#/landing-point/mataram-indonesia","name":"Mataram, Indonesia","id":"mataram-indonesia","landing_point_id":14613},{"latlon":"-2.849690,111.752942","url":"#/landing-point/pankalan-indonesia","name":"Pankalan, Indonesia","id":"pankalan-indonesia","landing_point_id":14608},{"latlon":"-0.027417,109.335629","url":"#/landing-point/pontianak-indonesia","name":"Pontianak, Indonesia","id":"pontianak-indonesia","landing_point_id":8360},{"latlon":"0.326848,117.550979","url":"#/landing-point/sangata-indonesia","name":"Sangata, Indonesia","id":"sangata-indonesia","landing_point_id":14609},{"latlon":"-1.142513,119.388458","url":"#/landing-point/toweli-indonesia","name":"Toweli, Indonesia","id":"toweli-indonesia","landing_point_id":14610}],"length":"1,700 km","rfs":"2010","owners":"Telkom Indonesia","url":null,"notes":null,"name":"JaKa2LaDeMa","cable_id":1767,"id":"jaka2ladema"}
