{"notes":null,"url":"http://www.alaskaunited.com","length":"966 km","cable_id":1530,"landing_points":[{"url":"#/landing-point/anchorage-alaska-united-states","landing_point_id":4067,"latlon":"61.217461,-149.858345","name":"Anchorage, Alaska, United States","id":"anchorage-alaska-united-states"},{"url":"#/landing-point/homer-alaska-united-states","landing_point_id":8392,"latlon":"59.646368,-151.544282","name":"Homer, Alaska, United States","id":"homer-alaska-united-states"},{"url":"#/landing-point/kenai-alaska-united-states","landing_point_id":8393,"latlon":"60.552910,-151.259760","name":"Kenai, Alaska, United States","id":"kenai-alaska-united-states"},{"url":"#/landing-point/kodiak-alaska-united-states","landing_point_id":8394,"latlon":"57.794123,-152.395258","name":"Kodiak, Alaska, United States","id":"kodiak-alaska-united-states"},{"url":"#/landing-point/narrow-cape-alaska-united-states","landing_point_id":8395,"latlon":"57.426838,-152.329145","name":"Narrow Cape, Alaska, United States","id":"narrow-cape-alaska-united-states"},{"url":"#/landing-point/seward-alaska-united-states","landing_point_id":5755,"latlon":"60.112188,-149.443111","name":"Seward, Alaska, United States","id":"seward-alaska-united-states"}],"rfs":"January 2007","name":"Kodiak Kenai Fiber Link (KKFL)","owners":"GCI","id":"kodiak-kenai-fiber-link-kkfl"}
