{"landing_points":[{"url":"#/landing-point/anchorage-alaska-united-states","name":"Anchorage, Alaska, United States","landing_point_id":4067,"id":"anchorage-alaska-united-states","latlon":"61.217461,-149.858345"},{"url":"#/landing-point/homer-alaska-united-states","name":"Homer, Alaska, United States","landing_point_id":8392,"id":"homer-alaska-united-states","latlon":"59.646368,-151.544282"},{"url":"#/landing-point/kenai-alaska-united-states","name":"Kenai, Alaska, United States","landing_point_id":8393,"id":"kenai-alaska-united-states","latlon":"60.552910,-151.259760"},{"url":"#/landing-point/kodiak-alaska-united-states","name":"Kodiak, Alaska, United States","landing_point_id":8394,"id":"kodiak-alaska-united-states","latlon":"57.794123,-152.395258"},{"url":"#/landing-point/narrow-cape-alaska-united-states","name":"Narrow Cape, Alaska, United States","landing_point_id":8395,"id":"narrow-cape-alaska-united-states","latlon":"57.426838,-152.329145"},{"url":"#/landing-point/seward-alaska-united-states","name":"Seward, Alaska, United States","landing_point_id":5755,"id":"seward-alaska-united-states","latlon":"60.112188,-149.443111"}],"rfs":"January 2007","length":"966 km","owners":"GCI","cable_id":1530,"notes":null,"url":"http://www.alaskaunited.com","name":"Kodiak Kenai Fiber Link (KKFL)","id":"kodiak-kenai-fiber-link-kkfl"}
