{"landing_points":[{"latlon":"61.217431,-149.858376","url":"#/landing-point/anchorage-alaska-united-states","name":"Anchorage, Alaska, United States","id":"anchorage-alaska-united-states","landing_point_id":4067},{"latlon":"59.646378,-151.544271","url":"#/landing-point/homer-alaska-united-states","name":"Homer, Alaska, United States","id":"homer-alaska-united-states","landing_point_id":8392},{"latlon":"60.552871,-151.259775","url":"#/landing-point/kenai-alaska-united-states","name":"Kenai, Alaska, United States","id":"kenai-alaska-united-states","landing_point_id":8393},{"latlon":"57.794143,-152.395249","url":"#/landing-point/kodiak-alaska-united-states","name":"Kodiak, Alaska, United States","id":"kodiak-alaska-united-states","landing_point_id":8394},{"latlon":"57.426828,-152.329145","url":"#/landing-point/narrow-cape-alaska-united-states","name":"Narrow Cape, Alaska, United States","id":"narrow-cape-alaska-united-states","landing_point_id":8395},{"latlon":"60.112173,-149.443126","url":"#/landing-point/seward-alaska-united-states","name":"Seward, Alaska, United States","id":"seward-alaska-united-states","landing_point_id":5755}],"length":"966 km","rfs":"January 2007","owners":"Kodiak Kenai Cable Company","url":"http://www.kkfl.info","notes":null,"name":"Kodiak Kenai Fiber Link (KKFL)","cable_id":1530,"id":"kodiak-kenai-fiber-link-kkfl"}
