{"landing_points":[{"latlon":"32.881732,21.741659","url":"#/landing-point/al-baida-libya","name":"Al Baida, Libya","id":"al-baida-libya","landing_point_id":10838},{"latlon":"30.378108,19.576523","url":"#/landing-point/al-brega-libya","name":"Al Brega, Libya","id":"al-brega-libya","landing_point_id":7870},{"latlon":"32.649664,14.264416","url":"#/landing-point/al-khoms-libya","name":"Al Khoms, Libya","id":"al-khoms-libya","landing_point_id":7866},{"latlon":"32.116584,20.066757","url":"#/landing-point/benghazi-libya","name":"Benghazi, Libya","id":"benghazi-libya","landing_point_id":7871},{"latlon":"32.763556,22.639217","url":"#/landing-point/darnah-libya","name":"Darnah, Libya","id":"darnah-libya","landing_point_id":7873},{"latlon":"32.374274,15.094787","url":"#/landing-point/misurata-libya","name":"Misurata, Libya","id":"misurata-libya","landing_point_id":7867},{"latlon":"30.586738,18.411875","url":"#/landing-point/ras-lanuf-libya","name":"Ras Lanuf, Libya","id":"ras-lanuf-libya","landing_point_id":7869},{"latlon":"31.205256,16.588341","url":"#/landing-point/sirt-libya","name":"Sirt, Libya","id":"sirt-libya","landing_point_id":7868},{"latlon":"32.079609,23.960310","url":"#/landing-point/tobrok-libya","name":"Tobrok, Libya","id":"tobrok-libya","landing_point_id":7874},{"latlon":"32.716730,20.949960","url":"#/landing-point/tolmeta-libya","name":"Tolmeta, Libya","id":"tolmeta-libya","landing_point_id":7872},{"latlon":"32.877301,13.187268","url":"#/landing-point/tripoli-libya","name":"Tripoli, Libya","id":"tripoli-libya","landing_point_id":4271},{"latlon":"32.774725,12.529749","url":"#/landing-point/zawia-libya","name":"Zawia, Libya","id":"zawia-libya","landing_point_id":7865},{"latlon":"32.933380,12.083362","url":"#/landing-point/zwara-libya","name":"Zwara, Libya","id":"zwara-libya","landing_point_id":7864}],"length":"1,639 km","rfs":"1999","cable_id":1184,"owners":"Libyan Post,  Telecommunications and Information Technology Company (LPTIC Holding)","notes":null,"url":null,"name":"LFON (Libyan Fiber Optic Network)","id":"lfon-libyan-fiber-optic-network"}
