{"landing_points":[{"url":"#/landing-point/al-baida-libya","name":"Al Baida, Libya","landing_point_id":10838,"id":"al-baida-libya","latlon":"32.881732,21.741659"},{"url":"#/landing-point/al-brega-libya","name":"Al Brega, Libya","landing_point_id":7870,"id":"al-brega-libya","latlon":"30.378108,19.576523"},{"url":"#/landing-point/al-khoms-libya","name":"Al Khoms, Libya","landing_point_id":7866,"id":"al-khoms-libya","latlon":"32.649664,14.264416"},{"url":"#/landing-point/benghazi-libya","name":"Benghazi, Libya","landing_point_id":7871,"id":"benghazi-libya","latlon":"32.116584,20.066757"},{"url":"#/landing-point/darnah-libya","name":"Darnah, Libya","landing_point_id":7873,"id":"darnah-libya","latlon":"32.763556,22.639217"},{"url":"#/landing-point/misurata-libya","name":"Misurata, Libya","landing_point_id":7867,"id":"misurata-libya","latlon":"32.374274,15.094787"},{"url":"#/landing-point/ras-lanuf-libya","name":"Ras Lanuf, Libya","landing_point_id":7869,"id":"ras-lanuf-libya","latlon":"30.586738,18.411875"},{"url":"#/landing-point/sirt-libya","name":"Sirt, Libya","landing_point_id":7868,"id":"sirt-libya","latlon":"31.205256,16.588341"},{"url":"#/landing-point/tobrok-libya","name":"Tobrok, Libya","landing_point_id":7874,"id":"tobrok-libya","latlon":"32.079609,23.960310"},{"url":"#/landing-point/tolmeta-libya","name":"Tolmeta, Libya","landing_point_id":7872,"id":"tolmeta-libya","latlon":"32.716730,20.949960"},{"url":"#/landing-point/tripoli-libya","name":"Tripoli, Libya","landing_point_id":4271,"id":"tripoli-libya","latlon":"32.877301,13.187268"},{"url":"#/landing-point/zawia-libya","name":"Zawia, Libya","landing_point_id":7865,"id":"zawia-libya","latlon":"32.774725,12.529749"},{"url":"#/landing-point/zwara-libya","name":"Zwara, Libya","landing_point_id":7864,"id":"zwara-libya","latlon":"32.933380,12.083362"}],"rfs":"1999","length":"1,639 km","owners":"Libyan Post,  Telecommunications and Information Technology Company (LPTIC Holding)","notes":null,"url":null,"name":"LFON (Libyan Fiber Optic Network)","id":"lfon-libyan-fiber-optic-network","cable_id":1184}
