{"notes":null,"url":null,"length":"1,639 km","cable_id":1184,"landing_points":[{"url":"#/landing-point/al-baida-libya","landing_point_id":10838,"latlon":"32.881767,21.741670","name":"Al Baida, Libya","id":"al-baida-libya"},{"url":"#/landing-point/al-brega-libya","landing_point_id":7870,"latlon":"30.378121,19.576529","name":"Al Brega, Libya","id":"al-brega-libya"},{"url":"#/landing-point/al-khoms-libya","landing_point_id":7866,"latlon":"32.649673,14.264464","name":"Al Khoms, Libya","id":"al-khoms-libya"},{"url":"#/landing-point/benghazi-libya","landing_point_id":7871,"latlon":"32.116619,20.066717","name":"Benghazi, Libya","id":"benghazi-libya"},{"url":"#/landing-point/darnah-libya","landing_point_id":7873,"latlon":"32.763612,22.639228","name":"Darnah, Libya","id":"darnah-libya"},{"url":"#/landing-point/misurata-libya","landing_point_id":7867,"latlon":"32.374312,15.094762","name":"Misurata, Libya","id":"misurata-libya"},{"url":"#/landing-point/ras-lanuf-libya","landing_point_id":7869,"latlon":"30.586725,18.411942","name":"Ras Lanuf, Libya","id":"ras-lanuf-libya"},{"url":"#/landing-point/sirt-libya","landing_point_id":7868,"latlon":"31.205308,16.588316","name":"Sirt, Libya","id":"sirt-libya"},{"url":"#/landing-point/tobrok-libya","landing_point_id":7874,"latlon":"32.079576,23.960317","name":"Tobrok, Libya","id":"tobrok-libya"},{"url":"#/landing-point/tolmeta-libya","landing_point_id":7872,"latlon":"32.716731,20.950020","name":"Tolmeta, Libya","id":"tolmeta-libya"},{"url":"#/landing-point/tripoli-libya","landing_point_id":4271,"latlon":"32.877350,13.187314","name":"Tripoli, Libya","id":"tripoli-libya"},{"url":"#/landing-point/zawia-libya","landing_point_id":7865,"latlon":"32.774654,12.529781","name":"Zawia, Libya","id":"zawia-libya"},{"url":"#/landing-point/zwara-libya","landing_point_id":7864,"latlon":"32.933366,12.083361","name":"Zwara, Libya","id":"zwara-libya"}],"rfs":"1999","name":"LFON (Libyan Fiber Optic Network)","owners":"Libyan PTT (GPTC)","id":"lfon-libyan-fiber-optic-network"}
