{"notes":null,"url":null,"length":"1,639 km","cable_id":1184,"landing_points":[{"url":"#/landing-point/al-baida-libya","landing_point_id":10838,"latlon":"32.881732,21.741671","name":"Al Baida, Libya","id":"al-baida-libya"},{"url":"#/landing-point/al-brega-libya","landing_point_id":7870,"latlon":"30.378120,19.576535","name":"Al Brega, Libya","id":"al-brega-libya"},{"url":"#/landing-point/al-khoms-libya","landing_point_id":7866,"latlon":"32.649701,14.264428","name":"Al Khoms, Libya","id":"al-khoms-libya"},{"url":"#/landing-point/benghazi-libya","landing_point_id":7871,"latlon":"32.116596,20.066769","name":"Benghazi, Libya","id":"benghazi-libya"},{"url":"#/landing-point/darnah-libya","landing_point_id":7873,"latlon":"32.763568,22.639229","name":"Darnah, Libya","id":"darnah-libya"},{"url":"#/landing-point/misurata-libya","landing_point_id":7867,"latlon":"32.374311,15.094799","name":"Misurata, Libya","id":"misurata-libya"},{"url":"#/landing-point/ras-lanuf-libya","landing_point_id":7869,"latlon":"30.586714,18.411887","name":"Ras Lanuf, Libya","id":"ras-lanuf-libya"},{"url":"#/landing-point/sirt-libya","landing_point_id":7868,"latlon":"31.205268,16.588353","name":"Sirt, Libya","id":"sirt-libya"},{"url":"#/landing-point/tobrok-libya","landing_point_id":7874,"latlon":"32.079584,23.960322","name":"Tobrok, Libya","id":"tobrok-libya"},{"url":"#/landing-point/tolmeta-libya","landing_point_id":7872,"latlon":"32.716693,20.949972","name":"Tolmeta, Libya","id":"tolmeta-libya"},{"url":"#/landing-point/tripoli-libya","landing_point_id":4271,"latlon":"32.877338,13.187280","name":"Tripoli, Libya","id":"tripoli-libya"},{"url":"#/landing-point/zawia-libya","landing_point_id":7865,"latlon":"32.774701,12.529761","name":"Zawia, Libya","id":"zawia-libya"},{"url":"#/landing-point/zwara-libya","landing_point_id":7864,"latlon":"32.933392,12.083375","name":"Zwara, Libya","id":"zwara-libya"}],"rfs":"1999","name":"LFON (Libyan Fiber Optic Network)","id":"lfon-libyan-fiber-optic-network","owners":"Libyan Post,  Telecommunications and Information Technology Company (LPTIC Holding)"}
