{"landing_points":[{"latlon":"32.881767,21.741670","url":"#/landing-point/al-baida-libya","name":"Al Baida, Libya","id":"al-baida-libya","landing_point_id":10838},{"latlon":"30.378121,19.576529","url":"#/landing-point/al-brega-libya","name":"Al Brega, Libya","id":"al-brega-libya","landing_point_id":7870},{"latlon":"32.649673,14.264464","url":"#/landing-point/al-khoms-libya","name":"Al Khoms, Libya","id":"al-khoms-libya","landing_point_id":7866},{"latlon":"32.116619,20.066717","url":"#/landing-point/benghazi-libya","name":"Benghazi, Libya","id":"benghazi-libya","landing_point_id":7871},{"latlon":"32.763612,22.639228","url":"#/landing-point/darnah-libya","name":"Darnah, Libya","id":"darnah-libya","landing_point_id":7873},{"latlon":"32.374312,15.094762","url":"#/landing-point/misurata-libya","name":"Misurata, Libya","id":"misurata-libya","landing_point_id":7867},{"latlon":"30.586725,18.411942","url":"#/landing-point/ras-lanuf-libya","name":"Ras Lanuf, Libya","id":"ras-lanuf-libya","landing_point_id":7869},{"latlon":"31.205308,16.588316","url":"#/landing-point/sirt-libya","name":"Sirt, Libya","id":"sirt-libya","landing_point_id":7868},{"latlon":"32.079576,23.960317","url":"#/landing-point/tobrok-libya","name":"Tobrok, Libya","id":"tobrok-libya","landing_point_id":7874},{"latlon":"32.716731,20.950020","url":"#/landing-point/tolmeta-libya","name":"Tolmeta, Libya","id":"tolmeta-libya","landing_point_id":7872},{"latlon":"32.877350,13.187314","url":"#/landing-point/tripoli-libya","name":"Tripoli, Libya","id":"tripoli-libya","landing_point_id":4271},{"latlon":"32.774654,12.529781","url":"#/landing-point/zawia-libya","name":"Zawia, Libya","id":"zawia-libya","landing_point_id":7865},{"latlon":"32.933366,12.083361","url":"#/landing-point/zwara-libya","name":"Zwara, Libya","id":"zwara-libya","landing_point_id":7864}],"length":"1,639 km","rfs":"1999","owners":"Libyan PTT (GPTC)","url":null,"notes":null,"name":"LFON (Libyan Fiber Optic Network)","cable_id":1184,"id":"lfon-libyan-fiber-optic-network"}
