{"landing_points":[{"latlon":"23.679429,58.004324","url":"#/landing-point/barka-oman","name":"Barka, Oman","id":"barka-oman","landing_point_id":8947},{"latlon":"25.298228,60.629616","url":"#/landing-point/chabahar-iran","name":"Chabahar, Iran","id":"chabahar-iran","landing_point_id":8849},{"latlon":"25.616977,56.258036","url":"#/landing-point/diba-oman","name":"Diba, Oman","id":"diba-oman","landing_point_id":10579},{"latlon":"25.681235,57.797391","url":"#/landing-point/jask-iran","name":"Jask, Iran","id":"jask-iran","landing_point_id":6031},{"latlon":"26.181308,56.246806","url":"#/landing-point/khasab-oman","name":"Khasab, Oman","id":"khasab-oman","landing_point_id":7645}],"length":"600 km","rfs":"Q1 2013","cable_id":1695,"owners":"Omantel,  Vodafone","notes":null,"url":"http://www.omantel.om","name":"OMRAN/EPEG Cable System","id":"omranepeg-cable-system"}
