{"landing_points":[{"url":"#/landing-point/barka-oman","name":"Barka, Oman","landing_point_id":8947,"id":"barka-oman","latlon":"23.679429,58.004324"},{"url":"#/landing-point/chabahar-iran","name":"Chabahar, Iran","landing_point_id":8849,"id":"chabahar-iran","latlon":"25.298228,60.629616"},{"url":"#/landing-point/diba-oman","name":"Diba, Oman","landing_point_id":10579,"id":"diba-oman","latlon":"25.616977,56.258036"},{"url":"#/landing-point/jask-iran","name":"Jask, Iran","landing_point_id":6031,"id":"jask-iran","latlon":"25.681235,57.797391"},{"url":"#/landing-point/khasab-oman","name":"Khasab, Oman","landing_point_id":7645,"id":"khasab-oman","latlon":"26.181308,56.246806"}],"rfs":"Q1 2013","length":"600 km","owners":"Omantel,  Vodafone","notes":null,"url":"http://www.omantel.om","name":"OMRAN/EPEG Cable System","id":"omranepeg-cable-system","cable_id":1695}
