{"landing_points":[{"latlon":"5.103230,73.070821","url":"#/landing-point/eydhafushi-maldives","name":"Eydhafushi, Maldives","id":"eydhafushi-maldives","landing_point_id":10812},{"latlon":"-0.606020,73.089181","url":"#/landing-point/hithadhoo-maldives","name":"Hithadhoo, Maldives","id":"hithadhoo-maldives","landing_point_id":10816},{"latlon":"4.211946,73.540157","url":"#/landing-point/hulhumale-maldives","name":"Hulhumale, Maldives","id":"hulhumale-maldives","landing_point_id":9215},{"latlon":"2.776766,73.424630","url":"#/landing-point/kolhufushi-maldives","name":"Kolhufushi, Maldives","id":"kolhufushi-maldives","landing_point_id":16506},{"latlon":"6.622443,73.071407","url":"#/landing-point/kulhudhufushi-maldives","name":"Kulhudhufushi, Maldives","id":"kulhudhufushi-maldives","landing_point_id":10811},{"latlon":"0.531088,72.997677","url":"#/landing-point/thinadhoo-maldives","name":"Thinadhoo, Maldives","id":"thinadhoo-maldives","landing_point_id":16505}],"length":"1,086 km","rfs":"March 2017","cable_id":1868,"owners":"n.a.","notes":null,"url":null,"name":"Ooredoo Maldives Domestic Submarine Cable System","id":"ooredoo-maldives-domestic-submarine-cable-system"}
