{"notes":null,"url":null,"length":"1,086 km","cable_id":1868,"landing_points":[{"url":"#/landing-point/eydhafushi-maldives","landing_point_id":10812,"latlon":"5.103230,73.070846","name":"Eydhafushi, Maldives","id":"eydhafushi-maldives"},{"url":"#/landing-point/hithadhoo-maldives","landing_point_id":10816,"latlon":"-0.606045,73.089205","name":"Hithadhoo, Maldives","id":"hithadhoo-maldives"},{"url":"#/landing-point/hulhumale-maldives","landing_point_id":9215,"latlon":"4.211922,73.540181","name":"Hulhumale, Maldives","id":"hulhumale-maldives"},{"url":"#/landing-point/kolhufushi-maldives","landing_point_id":16506,"latlon":"2.776766,73.424654","name":"Kolhufushi, Maldives","id":"kolhufushi-maldives"},{"url":"#/landing-point/kulhudhufushi-maldives","landing_point_id":10811,"latlon":"6.622467,73.071432","name":"Kulhudhufushi, Maldives","id":"kulhudhufushi-maldives"},{"url":"#/landing-point/thinadhoo-maldives","landing_point_id":16505,"latlon":"0.531064,72.997701","name":"Thinadhoo, Maldives","id":"thinadhoo-maldives"}],"rfs":"March 2017","name":"Ooredoo Maldives Domestic Submarine Cable System","id":"ooredoo-maldives-domestic-submarine-cable-system","owners":"n.a."}
