{"landing_points":[{"url":"#/landing-point/eydhafushi-maldives","name":"Eydhafushi, Maldives","landing_point_id":10812,"id":"eydhafushi-maldives","latlon":"5.103230,73.070821"},{"url":"#/landing-point/hithadhoo-maldives","name":"Hithadhoo, Maldives","landing_point_id":10816,"id":"hithadhoo-maldives","latlon":"-0.606020,73.089181"},{"url":"#/landing-point/hulhumale-maldives","name":"Hulhumale, Maldives","landing_point_id":9215,"id":"hulhumale-maldives","latlon":"4.211946,73.540157"},{"url":"#/landing-point/kolhufushi-maldives","name":"Kolhufushi, Maldives","landing_point_id":16506,"id":"kolhufushi-maldives","latlon":"2.776766,73.424630"},{"url":"#/landing-point/kulhudhufushi-maldives","name":"Kulhudhufushi, Maldives","landing_point_id":10811,"id":"kulhudhufushi-maldives","latlon":"6.622443,73.071407"},{"url":"#/landing-point/thinadhoo-maldives","name":"Thinadhoo, Maldives","landing_point_id":16505,"id":"thinadhoo-maldives","latlon":"0.531088,72.997677"}],"rfs":"December 2016","length":"1,086 km","owners":"n.a.","notes":null,"url":null,"name":"Ooredoo Maldives Domestic Submarine Cable System","id":"ooredoo-maldives-domestic-submarine-cable-system","cable_id":1868}
