{"notes":null,"url":"http://www.polarnetproject.ru","length":"16,373 km","cable_id":1244,"landing_points":[{"url":"#/landing-point/anadyr-russia","landing_point_id":10447,"latlon":"64.727152,177.502143","name":"Anadyr, Russia","id":"anadyr-russia"},{"url":"#/landing-point/emi-japan","landing_point_id":5894,"latlon":"35.062368,140.061100","name":"Emi, Japan","id":"emi-japan"},{"url":"#/landing-point/filey-united-kingdom","landing_point_id":5739,"latlon":"54.211842,-0.290761","name":"Filey, United Kingdom","id":"filey-united-kingdom"},{"url":"#/landing-point/terberka-russia","landing_point_id":10901,"latlon":"69.182868,35.125933","name":"Terberka, Russia","id":"terberka-russia"},{"url":"#/landing-point/vladivostok-russia","landing_point_id":3896,"latlon":"43.154643,131.910700","name":"Vladivostok, Russia","id":"vladivostok-russia"}],"rfs":"Q4 2015","name":"Russian Optical Trans-Arctic Cable System (ROTACS)","owners":"Polarnet Project Ltd.","id":"russian-optical-trans-arctic-cable-system-rotacs"}
