{"notes":null,"url":"http://www.polarnetproject.ru","length":"14,903 km","cable_id":1244,"landing_points":[{"url":"#/landing-point/anadyr-russia","landing_point_id":10447,"latlon":"64.727127,177.502046","name":"Anadyr, Russia","id":"anadyr-russia"},{"url":"#/landing-point/emi-japan","landing_point_id":5894,"latlon":"35.062395,140.061048","name":"Emi, Japan","id":"emi-japan"},{"url":"#/landing-point/filey-united-kingdom","landing_point_id":5739,"latlon":"54.211800,-0.290741","name":"Filey, United Kingdom","id":"filey-united-kingdom"},{"url":"#/landing-point/terberka-russia","landing_point_id":10901,"latlon":"69.182887,35.125942","name":"Terberka, Russia","id":"terberka-russia"},{"url":"#/landing-point/vladivostok-russia","landing_point_id":3896,"latlon":"43.154677,131.910661","name":"Vladivostok, Russia","id":"vladivostok-russia"}],"rfs":"Q4 2016","name":"Russian Optical Trans-Arctic Cable System (ROTACS)","id":"russian-optical-trans-arctic-cable-system-rotacs","owners":"Polarnet Project Ltd."}
