{"landing_points":[{"latlon":"64.727152,177.502143","url":"#/landing-point/anadyr-russia","name":"Anadyr, Russia","id":"anadyr-russia","landing_point_id":10447},{"latlon":"35.062368,140.061100","url":"#/landing-point/emi-japan","name":"Emi, Japan","id":"emi-japan","landing_point_id":5894},{"latlon":"54.211842,-0.290761","url":"#/landing-point/filey-united-kingdom","name":"Filey, United Kingdom","id":"filey-united-kingdom","landing_point_id":5739},{"latlon":"69.182868,35.125933","url":"#/landing-point/terberka-russia","name":"Terberka, Russia","id":"terberka-russia","landing_point_id":10901},{"latlon":"43.154643,131.910700","url":"#/landing-point/vladivostok-russia","name":"Vladivostok, Russia","id":"vladivostok-russia","landing_point_id":3896}],"length":"16,373 km","rfs":"Q4 2015","owners":"Polarnet Project Ltd.","url":"http://www.polarnetproject.ru","notes":null,"name":"Russian Optical Trans-Arctic Cable System (ROTACS)","cable_id":1244,"id":"russian-optical-trans-arctic-cable-system-rotacs"}
