{"landing_points":[{"url":"#/landing-point/anadyr-russia","name":"Anadyr, Russia","landing_point_id":10447,"id":"anadyr-russia","latlon":"64.727127,177.502046"},{"url":"#/landing-point/emi-japan","name":"Emi, Japan","landing_point_id":5894,"id":"emi-japan","latlon":"35.062395,140.061048"},{"url":"#/landing-point/filey-united-kingdom","name":"Filey, United Kingdom","landing_point_id":5739,"id":"filey-united-kingdom","latlon":"54.211800,-0.290741"},{"url":"#/landing-point/terberka-russia","name":"Terberka, Russia","landing_point_id":10901,"id":"terberka-russia","latlon":"69.182887,35.125942"},{"url":"#/landing-point/vladivostok-russia","name":"Vladivostok, Russia","landing_point_id":3896,"id":"vladivostok-russia","latlon":"43.154677,131.910661"}],"rfs":"Q4 2016","length":"14,903 km","owners":"Polarnet Project Ltd.","cable_id":1244,"notes":null,"url":"http://www.polarnetproject.ru","name":"Russian Optical Trans-Arctic Cable System (ROTACS)","id":"russian-optical-trans-arctic-cable-system-rotacs"}
