{"landing_points":[{"latlon":"-20.474004,57.485379","url":"#/landing-point/baie-jacotet-mauritius","name":"Baie Jacotet, Mauritius","id":"baie-jacotet-mauritius","landing_point_id":5906},{"latlon":"9.938091,76.269550","url":"#/landing-point/cochin-india","name":"Cochin, India","id":"cochin-india","landing_point_id":4322},{"latlon":"-33.727220,18.445762","url":"#/landing-point/melkbosstrand-south-africa","name":"Melkbosstrand, South Africa","id":"melkbosstrand-south-africa","landing_point_id":5941},{"latlon":"-28.950636,31.757853","url":"#/landing-point/mtunzini-south-africa","name":"Mtunzini, South Africa","id":"mtunzini-south-africa","landing_point_id":5942},{"latlon":"5.353645,100.362996","url":"#/landing-point/penang-malaysia","name":"Penang, Malaysia","id":"penang-malaysia","landing_point_id":3307},{"latlon":"-21.000249,55.279130","url":"#/landing-point/saint-paul-runion","name":"Saint Paul, Réunion","id":"saint-paul-runion","landing_point_id":5978}],"length":"13,500 km","rfs":"April 2002","cable_id":1220,"owners":"Orange,  Telekom Malaysia,  Telkom South Africa,  Tata Communications,  AT&T,  BT,  Camtel,  Angola Telecom,  Ghana Telecommunications Company,  Mauritius Telecom,  Verizon,  NATCOM (Nigeria),  OPT,  Telefonica,  Belgacom,  China Telecom,  Chunghwa Telecom,  Cote d’Ivoire Telecom,  Maroc Telecom,  KT,  KPN,  SingTel,  Sprint,  Telecom Italia Sparkle,  Telecom Namibia,  Telstra,  PCCW,  Sonatel,  Neotel,  Vodafone","notes":null,"url":null,"name":"SAFE","id":"safe"}
