{"landing_points":[{"url":"#/landing-point/baie-jacotet-mauritius","name":"Baie Jacotet, Mauritius","landing_point_id":5906,"id":"baie-jacotet-mauritius","latlon":"-20.474004,57.485404"},{"url":"#/landing-point/cochin-india","name":"Cochin, India","landing_point_id":4322,"id":"cochin-india","latlon":"9.938091,76.269575"},{"url":"#/landing-point/melkbosstrand-south-africa","name":"Melkbosstrand, South Africa","landing_point_id":5941,"id":"melkbosstrand-south-africa","latlon":"-33.727220,18.445774"},{"url":"#/landing-point/mtunzini-south-africa","name":"Mtunzini, South Africa","landing_point_id":5942,"id":"mtunzini-south-africa","latlon":"-28.950660,31.757877"},{"url":"#/landing-point/penang-malaysia","name":"Penang, Malaysia","landing_point_id":3307,"id":"penang-malaysia","latlon":"5.353620,100.363020"},{"url":"#/landing-point/saint-paul-runion","name":"Saint Paul, Réunion","landing_point_id":5978,"id":"saint-paul-runion","latlon":"-21.000273,55.279155"}],"rfs":"April 2002","length":"13,500 km","owners":"Orange,  Telekom Malaysia,  Telkom South Africa,  Tata Communications,  AT&T,  BT,  Camtel,  Angola Telecom,  Ghana Telecommunications Company,  Mauritius Telecom,  Verizon,  Nitel,  OPT,  Telefonica,  Belgacom,  China Telecom,  Chunghwa Telecom,  Cote d’Ivoire Telecom,  Maroc Telecom,  KT,  KPN,  SingTel,  Sprint,  Telecom Italia Sparkle,  Telecom Namibia,  Telstra,  PCCW,  Sonatel,  Neotel,  Vodafone","cable_id":1220,"notes":null,"url":"http://www.safe-sat3.co.za","name":"SAFE","id":"safe"}
