{"landing_points":[{"latlon":"-20.473988,57.485374","url":"#/landing-point/baie-jacotet-mauritius","name":"Baie Jacotet, Mauritius","id":"baie-jacotet-mauritius","landing_point_id":5906},{"latlon":"9.938075,76.269541","url":"#/landing-point/cochin-india","name":"Cochin, India","id":"cochin-india","landing_point_id":4322},{"latlon":"-33.727247,18.445772","url":"#/landing-point/melkbosstrand-south-africa","name":"Melkbosstrand, South Africa","id":"melkbosstrand-south-africa","landing_point_id":5941},{"latlon":"-28.950645,31.757858","url":"#/landing-point/mtunzini-south-africa","name":"Mtunzini, South Africa","id":"mtunzini-south-africa","landing_point_id":5942},{"latlon":"5.353613,100.362961","url":"#/landing-point/penang-malaysia","name":"Penang, Malaysia","id":"penang-malaysia","landing_point_id":3307},{"latlon":"-21.000216,55.279174","url":"#/landing-point/saint-paul-runion","name":"Saint Paul, Réunion","id":"saint-paul-runion","landing_point_id":5978}],"length":"13,500 km","rfs":"April 2002","owners":"France Telecom,  Telekom Malaysia,  Telkom South Africa,  Tata Communications,  AT&T,  BT,  Camtel,  Angola Telecom,  Ghana Telecommunications Company,  Mauritius Telecom,  Verizon Business,  Nitel,  OPT,  Telefonica,  Belgacom,  China Telecom,  Chunghwa,  Cote d’Ivoire Telecom,  Maroc Telecom,  KT,  KPN,  SingTel,  Sprint,  Telecom Italia Sparkle,  Telecom Namibia,  Telstra,  PCCW,  Sonatel,  Neotel,  Vodafone","url":"http://www.safe-sat3.co.za","notes":null,"name":"SAFE","cable_id":1220,"id":"safe"}
