{"notes":null,"url":null,"length":"13,500 km","cable_id":1220,"landing_points":[{"url":"#/landing-point/baie-jacotet-mauritius","landing_point_id":5906,"latlon":"-20.474004,57.485404","name":"Baie Jacotet, Mauritius","id":"baie-jacotet-mauritius"},{"url":"#/landing-point/cochin-india","landing_point_id":4322,"latlon":"9.938091,76.269575","name":"Cochin, India","id":"cochin-india"},{"url":"#/landing-point/melkbosstrand-south-africa","landing_point_id":5941,"latlon":"-33.727220,18.445774","name":"Melkbosstrand, South Africa","id":"melkbosstrand-south-africa"},{"url":"#/landing-point/mtunzini-south-africa","landing_point_id":5942,"latlon":"-28.950660,31.757877","name":"Mtunzini, South Africa","id":"mtunzini-south-africa"},{"url":"#/landing-point/penang-malaysia","landing_point_id":3307,"latlon":"5.353620,100.363020","name":"Penang, Malaysia","id":"penang-malaysia"},{"url":"#/landing-point/saint-paul-runion","landing_point_id":5978,"latlon":"-21.000273,55.279155","name":"Saint Paul, Réunion","id":"saint-paul-runion"}],"rfs":"April 2002","name":"SAFE","id":"safe","owners":"Orange,  Telekom Malaysia,  Telkom South Africa,  Tata Communications,  AT&T,  BT,  Camtel,  Angola Telecom,  Ghana Telecommunications Company,  Mauritius Telecom,  Verizon,  Nitel,  OPT,  Telefonica,  Belgacom,  China Telecom,  Chunghwa Telecom,  Cote d’Ivoire Telecom,  Maroc Telecom,  KT,  KPN,  SingTel,  Sprint,  Telecom Italia Sparkle,  Telecom Namibia,  Telstra,  PCCW,  Sonatel,  Neotel,  Vodafone"}
