{"landing_points":[{"url":"#/landing-point/bintulu-malaysia","name":"Bintulu, Malaysia","landing_point_id":7811,"id":"bintulu-malaysia","latlon":"3.197005,113.068361"},{"url":"#/landing-point/cherating-malaysia","name":"Cherating, Malaysia","landing_point_id":6011,"id":"cherating-malaysia","latlon":"4.130232,103.393658"},{"url":"#/landing-point/kota-kinabalu-malaysia","name":"Kota Kinabalu, Malaysia","landing_point_id":6009,"id":"kota-kinabalu-malaysia","latlon":"5.981330,116.074316"},{"url":"#/landing-point/kuching-malaysia","name":"Kuching, Malaysia","landing_point_id":7808,"id":"kuching-malaysia","latlon":"1.520175,110.353714"},{"url":"#/landing-point/mersing-malaysia","name":"Mersing, Malaysia","landing_point_id":5902,"id":"mersing-malaysia","latlon":"2.295516,103.849908"},{"url":"#/landing-point/miri-malaysia","name":"Miri, Malaysia","landing_point_id":7809,"id":"miri-malaysia","latlon":"4.425300,114.007423"}],"rfs":"Mid-2017","length":"3,800 km","owners":"Telekom Malaysia,  TIME dotCom","notes":null,"url":"http://www.tm.com.my","name":"Sistem Kabel Rakyat 1Malaysia (SKR1M)","id":"sistem-kabel-rakyat-1malaysia-skr1m","cable_id":1828}
