{"notes":null,"url":"http://www.tm.com.my","length":"3,700 km","cable_id":1828,"landing_points":[{"url":"#/landing-point/bintulu-malaysia","landing_point_id":7811,"latlon":"3.196981,113.068385","name":"Bintulu, Malaysia","id":"bintulu-malaysia"},{"url":"#/landing-point/cherating-malaysia","landing_point_id":6011,"latlon":"4.130183,103.393683","name":"Cherating, Malaysia","id":"cherating-malaysia"},{"url":"#/landing-point/kota-kinabalu-malaysia","landing_point_id":6009,"latlon":"5.981354,116.074341","name":"Kota Kinabalu, Malaysia","id":"kota-kinabalu-malaysia"},{"url":"#/landing-point/kuching-malaysia","landing_point_id":7808,"latlon":"1.520224,110.353738","name":"Kuching, Malaysia","id":"kuching-malaysia"},{"url":"#/landing-point/mersing-malaysia","landing_point_id":5902,"latlon":"2.295516,103.849932","name":"Mersing, Malaysia","id":"mersing-malaysia"},{"url":"#/landing-point/miri-malaysia","landing_point_id":7809,"latlon":"4.425300,114.007447","name":"Miri, Malaysia","id":"miri-malaysia"}],"rfs":"Mid-2017","name":"Sistem Kabel Rakyat 1Malaysia (SKR1M)","id":"sistem-kabel-rakyat-1malaysia-skr1m","owners":"Telekom Malaysia"}
