{"landing_points":[{"url":"#/landing-point/bintulu-malaysia","name":"Bintulu, Malaysia","landing_point_id":7811,"id":"bintulu-malaysia","latlon":"3.196981,113.068385"},{"url":"#/landing-point/cherating-malaysia","name":"Cherating, Malaysia","landing_point_id":6011,"id":"cherating-malaysia","latlon":"4.130183,103.393683"},{"url":"#/landing-point/kota-kinabalu-malaysia","name":"Kota Kinabalu, Malaysia","landing_point_id":6009,"id":"kota-kinabalu-malaysia","latlon":"5.981354,116.074341"},{"url":"#/landing-point/kuching-malaysia","name":"Kuching, Malaysia","landing_point_id":7808,"id":"kuching-malaysia","latlon":"1.520224,110.353738"},{"url":"#/landing-point/mersing-malaysia","name":"Mersing, Malaysia","landing_point_id":5902,"id":"mersing-malaysia","latlon":"2.295516,103.849932"},{"url":"#/landing-point/miri-malaysia","name":"Miri, Malaysia","landing_point_id":7809,"id":"miri-malaysia","latlon":"4.425300,114.007447"}],"rfs":"mid-2017","length":"3,500 km","owners":"Telekom Malaysia","cable_id":1828,"notes":null,"url":null,"name":"Sistem Kabel Rakyat 1Malaysia (SKR1M)","id":"sistem-kabel-rakyat-1malaysia-skr1m"}
