{"landing_points":[{"latlon":"3.197005,113.068361","url":"#/landing-point/bintulu-malaysia","name":"Bintulu, Malaysia","id":"bintulu-malaysia","landing_point_id":7811},{"latlon":"4.130232,103.393658","url":"#/landing-point/cherating-malaysia","name":"Cherating, Malaysia","id":"cherating-malaysia","landing_point_id":6011},{"latlon":"5.981330,116.074316","url":"#/landing-point/kota-kinabalu-malaysia","name":"Kota Kinabalu, Malaysia","id":"kota-kinabalu-malaysia","landing_point_id":6009},{"latlon":"1.520175,110.353714","url":"#/landing-point/kuching-malaysia","name":"Kuching, Malaysia","id":"kuching-malaysia","landing_point_id":7808},{"latlon":"2.295516,103.849908","url":"#/landing-point/mersing-malaysia","name":"Mersing, Malaysia","id":"mersing-malaysia","landing_point_id":5902},{"latlon":"4.425300,114.007423","url":"#/landing-point/miri-malaysia","name":"Miri, Malaysia","id":"miri-malaysia","landing_point_id":7809}],"length":"3,800 km","rfs":"Mid-2017","cable_id":1828,"owners":"Telekom Malaysia,  TIME dotCom","notes":null,"url":"http://www.tm.com.my","name":"Sistem Kabel Rakyat 1Malaysia (SKR1M)","id":"sistem-kabel-rakyat-1malaysia-skr1m"}
