{"landing_points":[{"latlon":"-1.163466,136.053286","url":"#/landing-point/biak-indonesia","name":"Biak, Indonesia","id":"biak-indonesia","landing_point_id":16629},{"latlon":"-3.097767,133.019425","url":"#/landing-point/fakfak-indonesia","name":"Fakfak, Indonesia","id":"fakfak-indonesia","landing_point_id":16574},{"latlon":"-2.591566,140.669104","url":"#/landing-point/jayapura-indonesia","name":"Jayapura, Indonesia","id":"jayapura-indonesia","landing_point_id":16627},{"latlon":"-3.679359,133.791495","url":"#/landing-point/kaimana-indonesia","name":"Kaimana, Indonesia","id":"kaimana-indonesia","landing_point_id":16633},{"latlon":"-0.861465,134.062003","url":"#/landing-point/manokwari-indonesia","name":"Manokwari, Indonesia","id":"manokwari-indonesia","landing_point_id":16630},{"latlon":"-8.499083,140.405042","url":"#/landing-point/merauke-indonesia","name":"Merauke, Indonesia","id":"merauke-indonesia","landing_point_id":16576},{"latlon":"-2.175233,139.353285","url":"#/landing-point/sarmi-indonesia","name":"Sarmi, Indonesia","id":"sarmi-indonesia","landing_point_id":16628},{"latlon":"-0.882070,131.295403","url":"#/landing-point/sorong-indonesia","name":"Sorong, Indonesia","id":"sorong-indonesia","landing_point_id":16573},{"latlon":"-4.550257,136.889614","url":"#/landing-point/timika-indonesia","name":"Timika, Indonesia","id":"timika-indonesia","landing_point_id":16575},{"latlon":"-5.626550,132.752043","url":"#/landing-point/tual-indonesia","name":"Tual, Indonesia","id":"tual-indonesia","landing_point_id":16632},{"latlon":"-0.383364,130.857610","url":"#/landing-point/waisai-indonesia","name":"Waisai, Indonesia","id":"waisai-indonesia","landing_point_id":16631}],"length":"3,498 km","rfs":"2015","cable_id":1885,"owners":"Telkom Indonesia","notes":null,"url":null,"name":"SMPCS Packet-2","id":"smpcs-packet-2"}
