{"notes":null,"url":null,"length":"3,498 km","cable_id":1885,"landing_points":[{"url":"#/landing-point/biak-indonesia","landing_point_id":16629,"latlon":"-1.163466,136.053237","name":"Biak, Indonesia","id":"biak-indonesia"},{"url":"#/landing-point/fakfak-indonesia","landing_point_id":16574,"latlon":"-3.097743,133.019450","name":"Fakfak, Indonesia","id":"fakfak-indonesia"},{"url":"#/landing-point/jayapura-indonesia","landing_point_id":16627,"latlon":"-2.591591,140.669056","name":"Jayapura, Indonesia","id":"jayapura-indonesia"},{"url":"#/landing-point/kaimana-indonesia","landing_point_id":16633,"latlon":"-3.679383,133.791520","name":"Kaimana, Indonesia","id":"kaimana-indonesia"},{"url":"#/landing-point/manokwari-indonesia","landing_point_id":16630,"latlon":"-0.861416,134.062027","name":"Manokwari, Indonesia","id":"manokwari-indonesia"},{"url":"#/landing-point/merauke-indonesia","landing_point_id":16576,"latlon":"-8.499107,140.404993","name":"Merauke, Indonesia","id":"merauke-indonesia"},{"url":"#/landing-point/sarmi-indonesia","landing_point_id":16628,"latlon":"-2.175282,139.353236","name":"Sarmi, Indonesia","id":"sarmi-indonesia"},{"url":"#/landing-point/sorong-indonesia","landing_point_id":16573,"latlon":"-0.882119,131.295427","name":"Sorong, Indonesia","id":"sorong-indonesia"},{"url":"#/landing-point/timika-indonesia","landing_point_id":16575,"latlon":"-4.550281,136.889565","name":"Timika, Indonesia","id":"timika-indonesia"},{"url":"#/landing-point/tual-indonesia","landing_point_id":16632,"latlon":"-5.626550,132.752067","name":"Tual, Indonesia","id":"tual-indonesia"},{"url":"#/landing-point/waisai-indonesia","landing_point_id":16631,"latlon":"-0.383389,130.857634","name":"Waisai, Indonesia","id":"waisai-indonesia"}],"rfs":"2015","name":"SMPCS Packet-2","id":"smpcs-packet-2","owners":"Telkom Indonesia"}
