{"landing_points":[{"url":"#/landing-point/biak-indonesia","name":"Biak, Indonesia","landing_point_id":16629,"id":"biak-indonesia","latlon":"-1.163466,136.053286"},{"url":"#/landing-point/fakfak-indonesia","name":"Fakfak, Indonesia","landing_point_id":16574,"id":"fakfak-indonesia","latlon":"-3.097767,133.019425"},{"url":"#/landing-point/jayapura-indonesia","name":"Jayapura, Indonesia","landing_point_id":16627,"id":"jayapura-indonesia","latlon":"-2.591566,140.669104"},{"url":"#/landing-point/kaimana-indonesia","name":"Kaimana, Indonesia","landing_point_id":16633,"id":"kaimana-indonesia","latlon":"-3.679359,133.791495"},{"url":"#/landing-point/manokwari-indonesia","name":"Manokwari, Indonesia","landing_point_id":16630,"id":"manokwari-indonesia","latlon":"-0.861465,134.062003"},{"url":"#/landing-point/merauke-indonesia","name":"Merauke, Indonesia","landing_point_id":16576,"id":"merauke-indonesia","latlon":"-8.499083,140.405042"},{"url":"#/landing-point/sarmi-indonesia","name":"Sarmi, Indonesia","landing_point_id":16628,"id":"sarmi-indonesia","latlon":"-2.175233,139.353285"},{"url":"#/landing-point/sorong-indonesia","name":"Sorong, Indonesia","landing_point_id":16573,"id":"sorong-indonesia","latlon":"-0.882070,131.295403"},{"url":"#/landing-point/timika-indonesia","name":"Timika, Indonesia","landing_point_id":16575,"id":"timika-indonesia","latlon":"-4.550257,136.889614"},{"url":"#/landing-point/tual-indonesia","name":"Tual, Indonesia","landing_point_id":16632,"id":"tual-indonesia","latlon":"-5.626550,132.752043"},{"url":"#/landing-point/waisai-indonesia","name":"Waisai, Indonesia","landing_point_id":16631,"id":"waisai-indonesia","latlon":"-0.383364,130.857610"}],"rfs":"2015","length":"3,498 km","owners":"Telkom Indonesia","notes":null,"url":null,"name":"SMPCS Packet-2","id":"smpcs-packet-2","cable_id":1885}
