{"notes":null,"url":"http://www.southerncrosscables.com","length":"30,500 km","cable_id":1009,"landing_points":[{"url":"#/landing-point/alexandria-australia","landing_point_id":6097,"latlon":"-33.913939,151.196199","name":"Alexandria, Australia","id":"alexandria-australia"},{"url":"#/landing-point/brookvale-australia","landing_point_id":5781,"latlon":"-33.761205,151.273933","name":"Brookvale, Australia","id":"brookvale-australia"},{"url":"#/landing-point/hillsboro-oregon-united-states","landing_point_id":3649,"latlon":"45.824792,-123.811189","name":"Hillsboro, Oregon, United States","id":"hillsboro-oregon-united-states"},{"url":"#/landing-point/kahe-point-hawaii-united-states","landing_point_id":5753,"latlon":"21.354003,-158.130558","name":"Kahe Point, Hawaii, United States","id":"kahe-point-hawaii-united-states"},{"url":"#/landing-point/morro-bay-california-united-states","landing_point_id":5751,"latlon":"35.366692,-120.847226","name":"Morro Bay, California, United States","id":"morro-bay-california-united-states"},{"url":"#/landing-point/spencer-beach-hawaii-united-states","landing_point_id":5752,"latlon":"20.023145,-155.822063","name":"Spencer Beach, Hawaii, United States","id":"spencer-beach-hawaii-united-states"},{"url":"#/landing-point/suva-fiji","landing_point_id":4268,"latlon":"-18.123810,178.437397","name":"Suva, Fiji","id":"suva-fiji"},{"url":"#/landing-point/takapuna-new-zealand","landing_point_id":5918,"latlon":"-36.787961,174.767867","name":"Takapuna, New Zealand","id":"takapuna-new-zealand"},{"url":"#/landing-point/whenuapai-new-zealand","landing_point_id":5919,"latlon":"-36.788840,174.623336","name":"Whenuapai, New Zealand","id":"whenuapai-new-zealand"}],"rfs":"November 2000","name":"Southern Cross Cable Network (SCCN)","id":"southern-cross-cable-network-sccn","owners":"Spark New Zealand,  SingTel Optus,  Verizon"}
