{"landing_points":[{"latlon":"-33.913966,151.196198","url":"#/landing-point/alexandria-australia","name":"Alexandria, Australia","id":"alexandria-australia","landing_point_id":6097},{"latlon":"-33.761178,151.273898","url":"#/landing-point/brookvale-australia","name":"Brookvale, Australia","id":"brookvale-australia","landing_point_id":5781},{"latlon":"45.824830,-123.811178","url":"#/landing-point/hillsboro-oregon-united-states","name":"Hillsboro, Oregon, United States","id":"hillsboro-oregon-united-states","landing_point_id":3649},{"latlon":"21.354056,-158.130545","url":"#/landing-point/kahe-point-hawaii-united-states","name":"Kahe Point, Hawaii, United States","id":"kahe-point-hawaii-united-states","landing_point_id":5753},{"latlon":"35.366740,-120.847209","url":"#/landing-point/morro-bay-california-united-states","name":"Morro Bay, California, United States","id":"morro-bay-california-united-states","landing_point_id":5751},{"latlon":"20.023128,-155.822051","url":"#/landing-point/spencer-beach-hawaii-united-states","name":"Spencer Beach, Hawaii, United States","id":"spencer-beach-hawaii-united-states","landing_point_id":5752},{"latlon":"-18.123834,178.437446","url":"#/landing-point/suva-fiji","name":"Suva, Fiji","id":"suva-fiji","landing_point_id":4268},{"latlon":"-36.787938,174.767909","url":"#/landing-point/takapuna-new-zealand","name":"Takapuna, New Zealand","id":"takapuna-new-zealand","landing_point_id":5918},{"latlon":"-36.788842,174.623453","url":"#/landing-point/whenuapai-new-zealand","name":"Whenuapai, New Zealand","id":"whenuapai-new-zealand","landing_point_id":5919}],"length":"30,500 km","rfs":"November 2000","owners":"Telecom New Zealand,  SingTel Optus,  Verizon Business","url":"http://www.southerncrosscables.com","notes":null,"name":"Southern Cross Cable Network (SCCN)","cable_id":1009,"id":"southern-cross-cable-network-sccn"}
