{"id":"southern-caribbean-fiber","name":"Southern Caribbean Fiber","cable_id":1619,"landing_points":[{"landing_point_id":4356,"id":"basseterre-saint-kitts-and-nevis","name":"Basseterre, Saint Kitts and Nevis","latlon":"17.298451,-62.731226","url":"#/landing-point/basseterre-saint-kitts-and-nevis"},{"landing_point_id":8835,"id":"canefield-dominica","name":"Canefield, Dominica","latlon":"15.303335,-61.384840","url":"#/landing-point/canefield-dominica"},{"landing_point_id":8838,"id":"chaguaramas-trinidad-and-tobago","name":"Chaguaramas, Trinidad and Tobago","latlon":"10.686162,-61.650806","url":"#/landing-point/chaguaramas-trinidad-and-tobago"},{"landing_point_id":4219,"id":"kingstown-saint-vincent-and-the-grenadines","name":"Kingstown, Saint Vincent and the Grenadines","latlon":"13.187870,-61.254664","url":"#/landing-point/kingstown-saint-vincent-and-the-grenadines"},{"landing_point_id":5905,"id":"le-lamentin-martinique","name":"Le Lamentin, Martinique","latlon":"14.615542,-61.094264","url":"#/landing-point/le-lamentin-martinique"},{"landing_point_id":6183,"id":"needhams-point-barbados","name":"Needham’s Point, Barbados","latlon":"13.078788,-59.612722","url":"#/landing-point/needhams-point-barbados"},{"landing_point_id":8837,"id":"rodney-bay-saint-lucia","name":"Rodney Bay, Saint Lucia","latlon":"14.035623,-60.988551","url":"#/landing-point/rodney-bay-saint-lucia"},{"landing_point_id":5750,"id":"st-croix-virgin-islands-united-states","name":"St. Croix, Virgin Islands, United States","latlon":"17.771864,-64.819408","url":"#/landing-point/st-croix-virgin-islands-united-states"},{"landing_point_id":4244,"id":"st-georges-grenada","name":"St. George’s, Grenada","latlon":"12.188016,-61.711597","url":"#/landing-point/st-georges-grenada"},{"landing_point_id":4239,"id":"st-johns-antigua-and-barbuda","name":"St. John’s, Antigua and Barbuda","latlon":"17.051479,-61.857935","url":"#/landing-point/st-johns-antigua-and-barbuda"}],"length":"n.a.","rfs":"September 2006","owners":"Digicel","url":"http://www.southern-caribbean.com","notes":null}
