{"notes":null,"url":"http://www.southerncrosscables.com","length":"30,500 km","cable_id":1009,"landing_points":[{"url":"#/landing-point/alexandria-australia","landing_point_id":6097,"latlon":"-33.913966,151.196198","name":"Alexandria, Australia","id":"alexandria-australia"},{"url":"#/landing-point/brookvale-australia","landing_point_id":5781,"latlon":"-33.761178,151.273898","name":"Brookvale, Australia","id":"brookvale-australia"},{"url":"#/landing-point/hillsboro-oregon-united-states","landing_point_id":3649,"latlon":"45.824830,-123.811178","name":"Hillsboro, Oregon, United States","id":"hillsboro-oregon-united-states"},{"url":"#/landing-point/kahe-point-hawaii-united-states","landing_point_id":5753,"latlon":"21.354056,-158.130545","name":"Kahe Point, Hawaii, United States","id":"kahe-point-hawaii-united-states"},{"url":"#/landing-point/morro-bay-california-united-states","landing_point_id":5751,"latlon":"35.366740,-120.847209","name":"Morro Bay, California, United States","id":"morro-bay-california-united-states"},{"url":"#/landing-point/spencer-beach-hawaii-united-states","landing_point_id":5752,"latlon":"20.023128,-155.822051","name":"Spencer Beach, Hawaii, United States","id":"spencer-beach-hawaii-united-states"},{"url":"#/landing-point/suva-fiji","landing_point_id":4268,"latlon":"-18.123834,178.437446","name":"Suva, Fiji","id":"suva-fiji"},{"url":"#/landing-point/takapuna-new-zealand","landing_point_id":5918,"latlon":"-36.787938,174.767909","name":"Takapuna, New Zealand","id":"takapuna-new-zealand"},{"url":"#/landing-point/whenuapai-new-zealand","landing_point_id":5919,"latlon":"-36.788842,174.623453","name":"Whenuapai, New Zealand","id":"whenuapai-new-zealand"}],"rfs":"November 2000","name":"Southern Cross Cable Network (SCCN)","owners":"Telecom New Zealand,  SingTel Optus,  Verizon,  Southern Cross Cable Network","id":"southern-cross-cable-network-sccn"}
