{"landing_points":[{"url":"#/landing-point/alexandria-australia","name":"Alexandria, Australia","landing_point_id":6097,"id":"alexandria-australia","latlon":"-33.913988,151.196248"},{"url":"#/landing-point/brookvale-australia","name":"Brookvale, Australia","landing_point_id":5781,"id":"brookvale-australia","latlon":"-33.761156,151.273982"},{"url":"#/landing-point/hillsboro-oregon-united-states","name":"Hillsboro, Oregon, United States","landing_point_id":3649,"id":"hillsboro-oregon-united-states","latlon":"45.824780,-123.811171"},{"url":"#/landing-point/kahe-point-hawaii-united-states","name":"Kahe Point, Hawaii, United States","landing_point_id":5753,"id":"kahe-point-hawaii-united-states","latlon":"21.353979,-158.130575"},{"url":"#/landing-point/morro-bay-california-united-states","name":"Morro Bay, California, United States","landing_point_id":5751,"id":"morro-bay-california-united-states","latlon":"35.366680,-120.847202"},{"url":"#/landing-point/spencer-beach-hawaii-united-states","name":"Spencer Beach, Hawaii, United States","landing_point_id":5752,"id":"spencer-beach-hawaii-united-states","latlon":"20.023108,-155.822086"},{"url":"#/landing-point/suva-fiji","name":"Suva, Fiji","landing_point_id":4268,"id":"suva-fiji","latlon":"-18.123810,178.437446"},{"url":"#/landing-point/takapuna-new-zealand","name":"Takapuna, New Zealand","landing_point_id":5918,"id":"takapuna-new-zealand","latlon":"-36.787961,174.767916"},{"url":"#/landing-point/whenuapai-new-zealand","name":"Whenuapai, New Zealand","landing_point_id":5919,"id":"whenuapai-new-zealand","latlon":"-36.788816,174.623385"}],"rfs":"November 2000","length":"30,500 km","owners":"Spark New Zealand,  SingTel Optus,  Verizon","notes":null,"url":"http://www.southerncrosscables.com","name":"Southern Cross Cable Network (SCCN)","id":"southern-cross-cable-network-sccn","cable_id":1009}
