{"notes":null,"url":"http://www.southern-caribbean.com","length":"n.a.","cable_id":1619,"landing_points":[{"url":"#/landing-point/basseterre-saint-kitts-and-nevis","landing_point_id":4356,"latlon":"17.298439,-62.731238","name":"Basseterre, Saint Kitts and Nevis","id":"basseterre-saint-kitts-and-nevis"},{"url":"#/landing-point/canefield-dominica","landing_point_id":8835,"latlon":"15.303323,-61.384852","name":"Canefield, Dominica","id":"canefield-dominica"},{"url":"#/landing-point/chaguaramas-trinidad-and-tobago","landing_point_id":8838,"latlon":"10.686137,-61.650819","name":"Chaguaramas, Trinidad and Tobago","id":"chaguaramas-trinidad-and-tobago"},{"url":"#/landing-point/kingstown-saint-vincent-and-the-grenadines","landing_point_id":4219,"latlon":"13.187894,-61.254676","name":"Kingstown, Saint Vincent and the Grenadines","id":"kingstown-saint-vincent-and-the-grenadines"},{"url":"#/landing-point/le-lamentin-martinique","landing_point_id":5905,"latlon":"14.615530,-61.094276","name":"Le Lamentin, Martinique","id":"le-lamentin-martinique"},{"url":"#/landing-point/needhams-point-barbados","landing_point_id":6183,"latlon":"13.078812,-59.612734","name":"Needham’s Point, Barbados","id":"needhams-point-barbados"},{"url":"#/landing-point/rodney-bay-saint-lucia","landing_point_id":8837,"latlon":"14.035647,-60.988563","name":"Rodney Bay, Saint Lucia","id":"rodney-bay-saint-lucia"},{"url":"#/landing-point/st-croix-virgin-islands-united-states","landing_point_id":5750,"latlon":"17.771876,-64.819421","name":"St. Croix, Virgin Islands, United States","id":"st-croix-virgin-islands-united-states"},{"url":"#/landing-point/st-georges-grenada","landing_point_id":4244,"latlon":"12.187992,-61.711610","name":"St. George’s, Grenada","id":"st-georges-grenada"},{"url":"#/landing-point/st-johns-antigua-and-barbuda","landing_point_id":4239,"latlon":"17.051466,-61.857947","name":"St. John’s, Antigua and Barbuda","id":"st-johns-antigua-and-barbuda"}],"rfs":"September 2006","name":"Southern Caribbean Fiber","id":"southern-caribbean-fiber","owners":"Digicel"}
