{"landing_points":[{"latlon":"17.298451,-62.731226","url":"#/landing-point/basseterre-saint-kitts-and-nevis","name":"Basseterre, Saint Kitts and Nevis","id":"basseterre-saint-kitts-and-nevis","landing_point_id":4356},{"latlon":"15.303335,-61.384840","url":"#/landing-point/canefield-dominica","name":"Canefield, Dominica","id":"canefield-dominica","landing_point_id":8835},{"latlon":"10.686162,-61.650806","url":"#/landing-point/chaguaramas-trinidad-and-tobago","name":"Chaguaramas, Trinidad and Tobago","id":"chaguaramas-trinidad-and-tobago","landing_point_id":8838},{"latlon":"13.187870,-61.254664","url":"#/landing-point/kingstown-saint-vincent-and-the-grenadines","name":"Kingstown, Saint Vincent and the Grenadines","id":"kingstown-saint-vincent-and-the-grenadines","landing_point_id":4219},{"latlon":"14.615542,-61.094264","url":"#/landing-point/le-lamentin-martinique","name":"Le Lamentin, Martinique","id":"le-lamentin-martinique","landing_point_id":5905},{"latlon":"13.078788,-59.612722","url":"#/landing-point/needhams-point-barbados","name":"Needham’s Point, Barbados","id":"needhams-point-barbados","landing_point_id":6183},{"latlon":"14.035623,-60.988551","url":"#/landing-point/rodney-bay-saint-lucia","name":"Rodney Bay, Saint Lucia","id":"rodney-bay-saint-lucia","landing_point_id":8837},{"latlon":"17.771864,-64.819408","url":"#/landing-point/st-croix-virgin-islands-united-states","name":"St. Croix, Virgin Islands, United States","id":"st-croix-virgin-islands-united-states","landing_point_id":5750},{"latlon":"12.188016,-61.711597","url":"#/landing-point/st-georges-grenada","name":"St. George’s, Grenada","id":"st-georges-grenada","landing_point_id":4244},{"latlon":"17.051479,-61.857935","url":"#/landing-point/st-johns-antigua-and-barbuda","name":"St. John’s, Antigua and Barbuda","id":"st-johns-antigua-and-barbuda","landing_point_id":4239}],"length":"n.a.","rfs":"September 2006","cable_id":1619,"owners":"Digicel","notes":null,"url":"http://www.southern-caribbean.com","name":"Southern Caribbean Fiber","id":"southern-caribbean-fiber"}
