{"landing_points":[{"url":"#/landing-point/basseterre-saint-kitts-and-nevis","name":"Basseterre, Saint Kitts and Nevis","landing_point_id":4356,"id":"basseterre-saint-kitts-and-nevis","latlon":"17.298451,-62.731226"},{"url":"#/landing-point/canefield-dominica","name":"Canefield, Dominica","landing_point_id":8835,"id":"canefield-dominica","latlon":"15.303335,-61.384840"},{"url":"#/landing-point/chaguaramas-trinidad-and-tobago","name":"Chaguaramas, Trinidad and Tobago","landing_point_id":8838,"id":"chaguaramas-trinidad-and-tobago","latlon":"10.686162,-61.650806"},{"url":"#/landing-point/kingstown-saint-vincent-and-the-grenadines","name":"Kingstown, Saint Vincent and the Grenadines","landing_point_id":4219,"id":"kingstown-saint-vincent-and-the-grenadines","latlon":"13.187870,-61.254664"},{"url":"#/landing-point/le-lamentin-martinique","name":"Le Lamentin, Martinique","landing_point_id":5905,"id":"le-lamentin-martinique","latlon":"14.615542,-61.094264"},{"url":"#/landing-point/needhams-point-barbados","name":"Needham’s Point, Barbados","landing_point_id":6183,"id":"needhams-point-barbados","latlon":"13.078788,-59.612722"},{"url":"#/landing-point/rodney-bay-saint-lucia","name":"Rodney Bay, Saint Lucia","landing_point_id":8837,"id":"rodney-bay-saint-lucia","latlon":"14.035623,-60.988551"},{"url":"#/landing-point/st-croix-virgin-islands-united-states","name":"St. Croix, Virgin Islands, United States","landing_point_id":5750,"id":"st-croix-virgin-islands-united-states","latlon":"17.771864,-64.819408"},{"url":"#/landing-point/st-georges-grenada","name":"St. George’s, Grenada","landing_point_id":4244,"id":"st-georges-grenada","latlon":"12.188016,-61.711597"},{"url":"#/landing-point/st-johns-antigua-and-barbuda","name":"St. John’s, Antigua and Barbuda","landing_point_id":4239,"id":"st-johns-antigua-and-barbuda","latlon":"17.051479,-61.857935"}],"rfs":"September 2006","length":"n.a.","owners":"Digicel","notes":null,"url":"http://www.southern-caribbean.com","name":"Southern Caribbean Fiber","id":"southern-caribbean-fiber","cable_id":1619}
