{"landing_points":[{"url":"#/landing-point/alexandria-australia","name":"Alexandria, Australia","landing_point_id":6097,"id":"alexandria-australia","latlon":"-33.913939,151.196199"},{"url":"#/landing-point/brookvale-australia","name":"Brookvale, Australia","landing_point_id":5781,"id":"brookvale-australia","latlon":"-33.761205,151.273933"},{"url":"#/landing-point/hillsboro-oregon-united-states","name":"Hillsboro, Oregon, United States","landing_point_id":3649,"id":"hillsboro-oregon-united-states","latlon":"45.824792,-123.811189"},{"url":"#/landing-point/kahe-point-hawaii-united-states","name":"Kahe Point, Hawaii, United States","landing_point_id":5753,"id":"kahe-point-hawaii-united-states","latlon":"21.354003,-158.130558"},{"url":"#/landing-point/morro-bay-california-united-states","name":"Morro Bay, California, United States","landing_point_id":5751,"id":"morro-bay-california-united-states","latlon":"35.366692,-120.847226"},{"url":"#/landing-point/spencer-beach-hawaii-united-states","name":"Spencer Beach, Hawaii, United States","landing_point_id":5752,"id":"spencer-beach-hawaii-united-states","latlon":"20.023145,-155.822063"},{"url":"#/landing-point/suva-fiji","name":"Suva, Fiji","landing_point_id":4268,"id":"suva-fiji","latlon":"-18.123810,178.437397"},{"url":"#/landing-point/takapuna-new-zealand","name":"Takapuna, New Zealand","landing_point_id":5918,"id":"takapuna-new-zealand","latlon":"-36.787961,174.767867"},{"url":"#/landing-point/whenuapai-new-zealand","name":"Whenuapai, New Zealand","landing_point_id":5919,"id":"whenuapai-new-zealand","latlon":"-36.788840,174.623336"}],"rfs":"November 2000","length":"30,500 km","owners":"Telecom New Zealand,  SingTel Optus,  Verizon","cable_id":1009,"notes":null,"url":"http://www.southerncrosscables.com","name":"Southern Cross Cable Network (SCCN)","id":"southern-cross-cable-network-sccn"}
