{"id":"terra-aleutian","name":"TERRA-Aleutian","cable_id":1942,"landing_points":[{"landing_point_id":17106,"id":"akutan-ak-united-states","name":"Akutan, AK, United States","latlon":"54.135555,-165.773053","url":"#/landing-point/akutan-ak-united-states"},{"landing_point_id":17105,"id":"false-pass-alaska-united-states","name":"False Pass, Alaska, United States","latlon":"54.850838,-163.414997","url":"#/landing-point/false-pass-alaska-united-states"},{"landing_point_id":17103,"id":"levelock-alaska-united-states","name":"Levelock, Alaska, United States","latlon":"59.114166,-156.858885","url":"#/landing-point/levelock-alaska-united-states"},{"landing_point_id":17104,"id":"port-heiden-alaska-united-states","name":"Port Heiden, Alaska, United States","latlon":"56.949165,-158.626938","url":"#/landing-point/port-heiden-alaska-united-states"},{"landing_point_id":17107,"id":"unalaska-alaska-united-states","name":"Unalaska, Alaska, United States","latlon":"53.884432,-166.533233","url":"#/landing-point/unalaska-alaska-united-states"}],"length":"1,078 km","rfs":"Q3 2020","owners":"GCI","url":"https://www.gci.com","notes":null}
