{"landing_points":[{"url":"#/landing-point/fish-camp-alaska-united-states","name":"Fish Camp, Alaska, United States","landing_point_id":15031,"id":"fish-camp-alaska-united-states","latlon":"59.949200,-154.858831"},{"url":"#/landing-point/homer-alaska-united-states","name":"Homer, Alaska, United States","landing_point_id":8392,"id":"homer-alaska-united-states","latlon":"59.646368,-151.544282"},{"url":"#/landing-point/igiugig-alaska-united-states","name":"Igiugig, Alaska, United States","landing_point_id":15033,"id":"igiugig-alaska-united-states","latlon":"59.327813,-155.894719"},{"url":"#/landing-point/illiamna-alaska-united-states","name":"Illiamna, Alaska, United States","landing_point_id":15027,"id":"illiamna-alaska-united-states","latlon":"59.754766,-154.906096"},{"url":"#/landing-point/kokhanok-alaska-united-states","name":"Kokhanok, Alaska, United States","landing_point_id":15028,"id":"kokhanok-alaska-united-states","latlon":"59.442169,-154.752727"},{"url":"#/landing-point/newhalem-alaska-united-states","name":"Newhalem, Alaska, United States","landing_point_id":15029,"id":"newhalem-alaska-united-states","latlon":"59.718145,-154.899749"},{"url":"#/landing-point/nondalton-alaska-united-states","name":"Nondalton, Alaska, United States","landing_point_id":15030,"id":"nondalton-alaska-united-states","latlon":"59.972637,-154.847698"},{"url":"#/landing-point/pedro-bay-alaska-united-states","name":"Pedro Bay, Alaska, United States","landing_point_id":15025,"id":"pedro-bay-alaska-united-states","latlon":"59.787188,-154.106097"},{"url":"#/landing-point/pile-bay-alaska-united-states","name":"Pile Bay, Alaska, United States","landing_point_id":15026,"id":"pile-bay-alaska-united-states","latlon":"59.776055,-153.880462"},{"url":"#/landing-point/port-alwsorth-alaska-united-states","name":"Port Alwsorth, Alaska, United States","landing_point_id":15032,"id":"port-alwsorth-alaska-united-states","latlon":"60.200372,-154.336907"},{"url":"#/landing-point/williamsport-alaska-united-states","name":"Williamsport, Alaska, United States","landing_point_id":15024,"id":"williamsport-alaska-united-states","latlon":"59.682403,-153.632122"}],"rfs":"2012","length":"n.a.","owners":"GCI","cable_id":1693,"notes":null,"url":"http://www.alaskaunited.com","name":"TERRA SW","id":"terra-sw"}
