{"id":"terra-aleutian","name":"TERRA-Aleutian","cable_id":1942,"landing_points":[{"landing_point_id":17106,"id":"akutan-ak-united-states","name":"Akutan, AK, United States","latlon":"54.135555,-165.773056","url":"#/landing-point/akutan-ak-united-states"},{"landing_point_id":17371,"id":"chignik-bay-ak-united-states","name":"Chignik Bay, AK, United States","latlon":"56.294441,-158.408809","url":"#/landing-point/chignik-bay-ak-united-states"},{"landing_point_id":17372,"id":"chignik-lagoon-ak-united-states","name":"Chignik Lagoon, AK, United States","latlon":"56.321260,-158.507230","url":"#/landing-point/chignik-lagoon-ak-united-states"},{"landing_point_id":17373,"id":"chignik-lake-ak-united-states","name":"Chignik Lake, AK, United States","latlon":"56.254890,-158.772090","url":"#/landing-point/chignik-lake-ak-united-states"},{"landing_point_id":17368,"id":"cold-bay-ak-united-states","name":"Cold Bay, AK, United States","latlon":"55.204048,-162.704030","url":"#/landing-point/cold-bay-ak-united-states"},{"landing_point_id":17105,"id":"false-pass-ak-united-states","name":"False Pass, AK, United States","latlon":"54.850838,-163.415000","url":"#/landing-point/false-pass-ak-united-states"},{"landing_point_id":17367,"id":"king-cove-ak-united-states","name":"King Cove, AK, United States","latlon":"55.049129,-162.304421","url":"#/landing-point/king-cove-ak-united-states"},{"landing_point_id":8394,"id":"kodiak-ak-united-states","name":"Kodiak, AK, United States","latlon":"57.794342,-152.395148","url":"#/landing-point/kodiak-ak-united-states"},{"landing_point_id":17374,"id":"larsen-bay-ak-united-states","name":"Larsen Bay, AK, United States","latlon":"57.537238,-153.985971","url":"#/landing-point/larsen-bay-ak-united-states"},{"landing_point_id":17370,"id":"perryville-ak-united-states","name":"Perryville, AK, United States","latlon":"55.917415,-159.144791","url":"#/landing-point/perryville-ak-united-states"},{"landing_point_id":17369,"id":"sand-point-ak-united-states","name":"Sand Point, AK, United States","latlon":"55.341451,-160.496301","url":"#/landing-point/sand-point-ak-united-states"},{"landing_point_id":17107,"id":"unalaska-ak-united-states","name":"Unalaska, AK, United States","latlon":"53.884432,-166.533242","url":"#/landing-point/unalaska-ak-united-states"}],"length":"1,078 km","rfs":"2020 Q3","owners":"GCI","url":"https://www.gci.com","notes":null}
