{"notes":null,"url":"http://www.alaskaunited.com","length":"n.a.","cable_id":1693,"landing_points":[{"url":"#/landing-point/fish-camp-alaska-united-states","landing_point_id":15031,"latlon":"59.949200,-154.858831","name":"Fish Camp, Alaska, United States","id":"fish-camp-alaska-united-states"},{"url":"#/landing-point/homer-alaska-united-states","landing_point_id":8392,"latlon":"59.646368,-151.544282","name":"Homer, Alaska, United States","id":"homer-alaska-united-states"},{"url":"#/landing-point/igiugig-alaska-united-states","landing_point_id":15033,"latlon":"59.327813,-155.894719","name":"Igiugig, Alaska, United States","id":"igiugig-alaska-united-states"},{"url":"#/landing-point/illiamna-alaska-united-states","landing_point_id":15027,"latlon":"59.754766,-154.906096","name":"Illiamna, Alaska, United States","id":"illiamna-alaska-united-states"},{"url":"#/landing-point/kokhanok-alaska-united-states","landing_point_id":15028,"latlon":"59.442169,-154.752727","name":"Kokhanok, Alaska, United States","id":"kokhanok-alaska-united-states"},{"url":"#/landing-point/newhalem-alaska-united-states","landing_point_id":15029,"latlon":"59.718145,-154.899749","name":"Newhalem, Alaska, United States","id":"newhalem-alaska-united-states"},{"url":"#/landing-point/nondalton-alaska-united-states","landing_point_id":15030,"latlon":"59.972637,-154.847698","name":"Nondalton, Alaska, United States","id":"nondalton-alaska-united-states"},{"url":"#/landing-point/pedro-bay-alaska-united-states","landing_point_id":15025,"latlon":"59.787188,-154.106097","name":"Pedro Bay, Alaska, United States","id":"pedro-bay-alaska-united-states"},{"url":"#/landing-point/pile-bay-alaska-united-states","landing_point_id":15026,"latlon":"59.776055,-153.880462","name":"Pile Bay, Alaska, United States","id":"pile-bay-alaska-united-states"},{"url":"#/landing-point/port-alwsorth-alaska-united-states","landing_point_id":15032,"latlon":"60.200372,-154.336907","name":"Port Alwsorth, Alaska, United States","id":"port-alwsorth-alaska-united-states"},{"url":"#/landing-point/williamsport-alaska-united-states","landing_point_id":15024,"latlon":"59.682403,-153.632122","name":"Williamsport, Alaska, United States","id":"williamsport-alaska-united-states"}],"rfs":"2012","name":"TERRA SW","owners":"GCI","id":"terra-sw"}
