{"landing_points":[{"latlon":"59.949200,-154.858846","url":"#/landing-point/fish-camp-alaska-united-states","name":"Fish Camp, Alaska, United States","id":"fish-camp-alaska-united-states","landing_point_id":15031},{"latlon":"59.646368,-151.544297","url":"#/landing-point/homer-alaska-united-states","name":"Homer, Alaska, United States","id":"homer-alaska-united-states","landing_point_id":8392},{"latlon":"59.327801,-155.894736","url":"#/landing-point/igiugig-alaska-united-states","name":"Igiugig, Alaska, United States","id":"igiugig-alaska-united-states","landing_point_id":15033},{"latlon":"59.754766,-154.906116","url":"#/landing-point/illiamna-alaska-united-states","name":"Illiamna, Alaska, United States","id":"illiamna-alaska-united-states","landing_point_id":15027},{"latlon":"59.442157,-154.752747","url":"#/landing-point/kokhanok-alaska-united-states","name":"Kokhanok, Alaska, United States","id":"kokhanok-alaska-united-states","landing_point_id":15028},{"latlon":"59.718145,-154.899767","url":"#/landing-point/newhalem-alaska-united-states","name":"Newhalem, Alaska, United States","id":"newhalem-alaska-united-states","landing_point_id":15029},{"latlon":"59.972649,-154.847716","url":"#/landing-point/nondalton-alaska-united-states","name":"Nondalton, Alaska, United States","id":"nondalton-alaska-united-states","landing_point_id":15030},{"latlon":"59.787213,-154.106115","url":"#/landing-point/pedro-bay-alaska-united-states","name":"Pedro Bay, Alaska, United States","id":"pedro-bay-alaska-united-states","landing_point_id":15025},{"latlon":"59.776055,-153.880477","url":"#/landing-point/pile-bay-alaska-united-states","name":"Pile Bay, Alaska, United States","id":"pile-bay-alaska-united-states","landing_point_id":15026},{"latlon":"60.200372,-154.336926","url":"#/landing-point/port-alwsorth-alaska-united-states","name":"Port Alwsorth, Alaska, United States","id":"port-alwsorth-alaska-united-states","landing_point_id":15032},{"latlon":"59.682403,-153.632138","url":"#/landing-point/williamsport-alaska-united-states","name":"Williamsport, Alaska, United States","id":"williamsport-alaska-united-states","landing_point_id":15024}],"length":"n.a.","rfs":"2012","cable_id":1693,"owners":"GCI","notes":null,"url":"http://www.alaskaunited.com","name":"TERRA SW","id":"terra-sw"}
